UnitID,Institution Name,FIPS (HD2023),SECTOR (HD2023),ADDR (HD2023),CITY (HD2023),STABBR (HD2023),ZIP (HD2023),Latitude,Longitude,Number,Street,Unit Type,Unit Number,City,State,County,Zip
493868,A Better U Beauty Barber Academy,35,9,5400 Phoenix Ave NE Suite 105,Albuquerque,NM,87110,35.110582,-106.583859,5400,Phoenix Ave NE,Ste,105,Albuquerque,NM,Bernalillo County,87110
177834,A T Still University of Health Sciences,29,2,800 W Jefferson,Kirksville,MO,63501,40.193145,-92.588866,800,W Jefferson St,,,Kirksville,MO,Adair County,63501
180203,Aaniiih Nakoda College,30,1,269 Blackfeet Avenue,Harlem,MT,59526,48.484446,-108.759576,269,Blackfeet Ave,,,Harlem,MT,Blaine County,59526
491464,ABC Adult School,6,7,12254 Cuesta Drive,Cerritos,CA,90703-2801,33.877895,-118.070014,12254,Cuesta Dr,,,Cerritos,CA,Los Angeles County,90703
459523,ABC Beauty Academy,48,9,2109 Buckingham Rd.,Richardson,TX,75081,32.931742,-96.685136,2109,E Buckingham Rd,,,Richardson,TX,Dallas County,75081
485500,ABCO Technology,6,6,11222 S. La Cienega Blvd Ste 588,Inglewood,CA,90304-1551,33.932158,-118.369779,11222,S La Cienega Blvd,Ste,588,Inglewood,CA,Los Angeles County,90304
461892,Abcott Institute,26,9,16250 Northland Drive  Suite 205,Southfield,MI,48075-5227,42.446391,-83.210629,16250,Northland Dr,Ste,205,Southfield,MI,Oakland County,48075
222178,Abilene Christian University,48,2, ,Abilene,TX,79699,32.462235,-99.715894,,,,,Abilene,TX,Taylor County,79699
497037,Abilene Christian University-Undergraduate Online,48,2,16633 Dallas Parkway  Suite 800,Addison,TX,75001,32.976445,-96.827271,16633,Dallas Pkwy,Ste,800,Addison,TX,Dallas County,75001
138558,Abraham Baldwin Agricultural College,13,1,2802 Moore Hwy,Tifton,GA,31793-2601,31.479692,-83.521157,2802,Moore Hwy,,,Tifton,GA,Tift County,31793
488031,Abraham Lincoln University,6,3,100 West Broadway  Suite 600,Glendale,CA,91210,34.146096,-118.256603,100,W Broadway,Ste,600,Glendale,CA,Los Angeles County,91210
497374,Academia Medical Institute,39,9,3445 South Boulevard,Columbus,OH,43204-0000,39.955271,-83.092588,3445,South Blvd,,,Columbus,OH,Franklin County,43204
172866,Academy College,27,3,1600 W. 82nd Street  Suite 100,Bloomington,MN,55431-1411,44.855954,-93.299668,1600,82nd St W,Ste,100,Minneapolis,MN,Hennepin County,55431
449463,Academy Di Capelli-School of Cosmetology,9,9,950 Yale Ave Unit 20,Wallingford,CT,6492,41.490738,-72.806986,950,Yale Ave,Unit,20,Wallingford,CT,South Central Connecticut Planning Region,6492
457989,Academy for Careers and Technology,45,7,2697 E Hwy 76,Mullins,SC,29574,34.206534,-79.173538,,E Hwy 76,,,Mullins,SC,Marion County,29574
451079,Academy for Five Element Acupuncture,12,2,305 SE 2nd Ave,Gainesville,FL,32601,29.650186,-82.322024,305,SE 2nd Ave,,,Gainesville,FL,Alachua County,32601
497718,Academy for Jewish Religion,36,2,28 Wells Ave,Yonkers,NY,10701,40.936184,-73.900106,28,Wells Ave,,,Yonkers,NY,Westchester County,10701
457271,Academy for Jewish Religion California,6,2,1LMU Drive  STE 3400,Los Angeles,CA,90045,33.96577,-118.42406,1,S Lmu Dr,Ste,3400,Los Angeles,CA,Los Angeles County,90045
412173,Academy for Nursing and Health Occupations,12,5,5154 Okeechobee Blvd Ste 201,West Palm Beach,FL,33417,26.706508,-80.121528,5154,Okeechobee Blvd,Ste,201,West Palm Beach,FL,Palm Beach County,33417
462062,Academy for Salon Professionals,6,9,19520 Nordhoff St. Unit 9,Northridge,CA,91324,34.23378,-118.55808,19520,W Nordhoff St,Ste,9,Northridge,CA,Los Angeles County,91324
497198,Academy of Allied Health Careers,47,9,5600 Brainerd Road c-3,Chattanooga,TN,37411-5336,35.009407,-85.214545,5600,Brainerd Rd,Ste,3,Chattanooga,TN,Hamilton County,37411
108232,Academy of Art University,6,3,79 New Montgomery,San Francisco,CA,94105,37.78789,-122.400536,79,New Montgomery St,,,San Francisco,CA,San Francisco County,94105
421771,Academy of Beauty Professionals,29,9,800 W Foxwood Dr.,Raymore,MO,64083-9195,38.811893,-94.465856,800,W Foxwood Dr,,,Raymore,MO,Cass County,64083
489122,Academy of Beauty Professionals,55,9,6414 Odana Road,Madison,WI,53719,43.05548,-89.490791,6414,Odana Rd,,,Madison,WI,Dane County,53719
489131,Academy of Beauty Professionals,55,9,525 Westhill Boulevard,Appleton,WI,54914-5780,44.266162,-88.461622,525,N Westhill Blvd,,,Appleton,WI,Outagamie County,54914
489140,Academy of Beauty Professionals,55,9,2575 W. Mason Street,Green Bay,WI,54303-4838,44.523599,-88.097918,2575,W Mason St,,,Green Bay,WI,Brown County,54303
451097,Academy of Career Training,12,9,3501 W Vine St Ste 111,Kissimmee,FL,34741,28.305944,-81.439869,3501,W Vine St,Ste,111,Kissimmee,FL,Osceola County,34741
237729,Academy of Careers and Technology,54,7,390 Stanaford Rd,Beckley,WV,25801,37.795236,-81.165359,390,Stanaford Rd,,,Beckley,WV,Raleigh County,25801
108269,Academy of Chinese Culture and Health Sciences,6,2,1600 Broadway  Ste. 200,Oakland,CA,94612,37.805985,-122.269679,1600,Broadway,Ste,200,Oakland,CA,Alameda County,94612
372462,Academy of Cosmetology,12,9,2088 N. Courtenay Parkway,Merritt Island,FL,32953,28.394097,-80.703796,2088,N Courtenay Pkwy,,,Merritt Island,FL,Brevard County,32953
179991,Academy of Cosmetology Inc,30,9,133 W Mendenhall,Bozeman,MT,59715-3544,45.680593,-111.039875,133,W Mendenhall St,,,Bozeman,MT,Gallatin County,59715
499325,Academy of Cosmetology  Barbering  and Esthetics,40,9,9210 South Pennsylvania Avenue,Oklahoma City,OK,73159-6902,35.37503,-97.547572,9210,S Pennsylvania Ave,,,Oklahoma City,OK,Cleveland County,73159
454722,Academy of Esthetics and Cosmetology,6,9,1242 San Fernando Rd,San Fernando,CA,91340-3212,34.284963,-118.444213,1242,San Fernando Rd,,,San Fernando,CA,Los Angeles County,91340
175722,Academy of Hair Design-Grenada,28,9,1301 Sunset Dr #JK,Grenada,MS,38901,33.768875,-89.81462,,Sunset Dr,#,JK,Grenada,MS,Grenada County,38901
374316,Academy of Hair Design-Jackson,28,9,5420 I-55 Frontage Rd N,Jackson,MS,39211,32.376277,-90.14697,5420,N Highway 55,,,Jackson,MS,Hinds County,39211
447449,Academy of Hair Design-Jasper,48,9,348 Spring Hill St,Jasper,TX,75951,30.911312,-94.003993,316,Hale St,,,Jasper,TX,Jasper County,75951
181880,Academy of Hair Design-Las Vegas,32,9,5191 W. Charleston Blvd. #150,Las Vegas,NV,89146,36.158971,-115.211538,5191,W Charleston Blvd,Ste,150,Las Vegas,NV,Clark County,89146
434274,Academy of Hair Design-Lufkin,48,9,512 S Chestnut,Lufkin,TX,75904,31.334856,-94.718981,512,S Chestnut St,,,Lufkin,TX,Angelina County,75901
382461,Academy of Hair Design-Pearl,28,9,3167 Hwy 80 E,Pearl,MS,39208,32.282256,-90.114528,3167,Hwy 80 E,,,Pearl,MS,Rankin County,39208
451334,Academy of Hair Design-Springfield,29,9,1834 S Glenstone,Springfield,MO,65804,37.180501,-93.261357,1834,S Glenstone Ave,,,Springfield,MO,Greene County,65804
376446,Academy of Hair Technology,45,9,3715 E North St Ste F,Greenville,SC,29615-2363,34.87417,-82.327665,3715,E North St,Ste,F,Greenville,SC,Greenville County,29615
482185,Academy of Interactive Entertainment,53,5,305 Harrison St Ste 405,Seattle,WA,98109-4623,47.621412,-122.350858,305,Harrison St,Ste,405,Seattle,WA,King County,98109
487658,Academy of Interactive Entertainment,22,5,537 Cajundome Boulevard #211,Lafayette,LA,70506-4293,30.219944,-92.04327,537,Cajundome Blvd,Ste,211,Lafayette,LA,Lafayette Parish,70506
451051,Academy of Massage and Bodywork,10,9,1218 Pulaski Hwy Ste 324,Bear,DE,19701,39.628563,-75.667212,1218,Pulaski Hwy,Ste,324,Bear,DE,New Castle County,19701
449454,Academy of Natural Therapy Inc,8,9,625 8th Ave,Greeley,CO,80631-9441,40.426235,-104.691063,625,8th Ave,,,Greeley,CO,Weld County,80631
486619,Academy of Professional Cosmetology,5,9,2600 West Hudson Road Suite A,Rogers,AR,72756-2028,36.355439,-94.157425,2600,W Hudson Rd,Ste,A,Rogers,AR,Benton County,72756
107293,Academy of Salon and Spa,5,9,311 S 16th St,Fort Smith,AR,72901,35.380657,-94.41617,311,S 16th St,,,Fort Smith,AR,Sebastian County,72901
480879,Academy of Salon Professionals,29,9,2414 S. Limit Ave,Sedalia,MO,65301,38.69017,-93.25316,2424,S Limit Ave,,,Sedalia,MO,Pettis County,65301
461342,Acaydia School of Aesthetics,49,9,86 North University Avenue  Suite 130,Provo,UT,84601-0000,40.234826,-111.658426,86,N University Ave,Ste,130,Provo,UT,Utah County,84601
483708,Access Careers,36,9,474 Fulton Avenue  Suite 201,Hempstead,NY,11550-0000,40.709521,-73.615269,474,Fulton Ave,Ste,201,Hempstead,NY,Nassau County,11550
494904,Access Careers-Islandia,36,9,1930 Veterans Highway  Suite 10,Islandia,NY,11749-1599,40.800837,-73.175589,1930,Veterans Hwy,Ste,10,Islandia,NY,Suffolk County,11749
449676,Ace Institute of Technology,36,6,312 West 36 Street  2nd Floor,New York,NY,10018,40.75368,-73.993267,312,W 36th St,Rm,2E,New York,NY,New York County,10018
384306,Acupuncture and Integrative Medicine College-Berkeley,6,2,2550 Shattuck Avenue,Berkeley,CA,94704,37.862761,-122.267754,2550,Shattuck Ave,,,Berkeley,CA,Alameda County,94704
439969,Acupuncture and Massage College,12,3,10506 N Kendall Drive,Miami,FL,33176,25.686484,-80.364034,10508,N Kendall Dr,,,Miami,FL,Miami-Dade County,33176
126182,Adams State University,8,1,208 Edgemont Blvd,Alamosa,CO,81101,37.47136,-105.88077,208,Edgemont Blvd,,,Alamosa,CO,Alamosa County,81101
188429,Adelphi University,36,2,1 South Ave,Garden City,NY,11530-0701,40.719259,-73.649666,1,South Ave,,,Garden City,NY,Nassau County,11530
374024,Adler Graduate School,27,2,10225 Yellow Circle Dr.,Minnetonka,MN,55343,44.893355,-93.410196,10225,Yellow Circle Dr,,,Hopkins,MN,Hennepin County,55343
142832,Adler University,17,2,17 North Dearborn Street,Chicago,IL,60602,41.882473,-87.628663,17,N Dearborn St,,,Chicago,IL,Cook County,60602
168528,Adrian College,26,2,110 S Madison St,Adrian,MI,49221-2575,41.897278,-84.058554,110,S Madison St,,,Adrian,MI,Lenawee County,49221
495217,Adrian H. Wallace Barber Academy,12,9,3822 North 9th Avenue,Pensacola,FL,32503-2802,30.452184,-87.213636,3822,N 9th Ave,,,Pensacola,FL,Escambia County,32503
262369,Adrian's Beauty College of Turlock,6,9,1340 W Main St,Turlock,CA,95380,37.491464,-120.863913,1340,W Main St,,,Turlock,CA,Stanislaus County,95380
203030,Adult and Community Education-Hudson,39,7,2323 Lexington Avenue,Columbus,OH,43211,40.01312,-82.980445,2323,Lexington Ave,,,Columbus,OH,Franklin County,43211
183983,Adult and Continuing Education-BCTS,34,7,190 Hackensack Avenue,Hackensack,NJ,07601-6637,40.900775,-74.035028,190,Hackensack Ave,,,Hackensack,NJ,Bergen County,7601
400187,Advance Beauty College,6,9,10121 Westminster Ave,Garden Grove,CA,92843,33.759916,-117.952448,10121,Westminster Ave,,,Garden Grove,CA,Orange County,92843
479974,Advance Beauty Techs Academy,6,9,641 N State St Ste 1,San Jacinto,CA,92583-6572,33.800246,-116.971878,641,N State St,Ste,1,San Jacinto,CA,Riverside County,92583
444334,Advance Science International College,12,6,5190 nw 167 st STE 200,Miami Lakes,FL,33014,25.924466,-80.28465,5190,NW 167th St,Ste,200,Miami Lakes,FL,Miami-Dade County,33014
437608,Advanced Barber College and Hair Design,48,9,2818 S International,Weslaco,TX,78596,26.131834,-97.958302,2818,S International Blvd,,,Weslaco,TX,Hidalgo County,78596
480019,Advanced Career Institute,6,9,1243 N. Clancy Street,Visalia,CA,93291,36.340848,-119.377618,1243,N Clancy St,,,Visalia,CA,Tulare County,93291
461786,Advanced College of Cosmetology,55,9,25 West Main Street,Waupun,WI,53963-0000,43.632834,-88.736123,25,W Main St,,,Waupun,WI,Dodge County,53963
231411,Advanced Technology Institute,51,6,5700 Southern Blvd Ste 100,Virginia Beach,VA,23462,36.841636,-76.181985,5700,Southern Blvd,Ste,100,Virginia Beach,VA,Virginia Beach City,23462
461430,Advanced Training Institute,32,9,5150 S. Decatur Blvd.,Las Vegas,NV,89118-1519,36.095915,-115.206834,5150,S Decatur Blvd,,,Las Vegas,NV,Clark County,89118
456001,Advanced Welding Institute,50,9,2 Green Tree Dr Suite 3,South Burlington,VT,5403,44.455866,-73.139413,2,Green Tree Dr,Ste,3,South Burlington,VT,Chittenden County,5403
490896,Advantage Career Institute,34,9,215 Broad Street,Eatontown,NJ,7724,40.306788,-74.050745,215,Broad St,,,Eatontown,NJ,Monmouth County,7724
133872,AdventHealth University,12,2,671 Winyah Drive,Orlando,FL,32803,28.576128,-81.36762,671,Winyah Dr,,,Orlando,FL,Orange County,32803
476878,Aesthetic Science Institute,36,9,922 Troy-Schenectady Road,Latham,NY,12110-1095,42.761953,-73.794839,922,Troy Schenectady Rd,,,Latham,NY,Albany County,12110
496724,Aesthetics Institute,29,9,50 Grasso Plaza,St. Louis,MO,63123-3107,38.551783,-90.334808,50,Grasso Plz,,,Saint Louis,MO,St. Louis County,63123
496399,Agape College of Business and Science,6,2,1313 P Street,Fresno,CA,93721-1827,36.741436,-119.787986,1313,P St,,,Fresno,CA,Fresno County,93721
138600,Agnes Scott College,13,2,141 E. College Ave.,Decatur,GA,30030-3770,33.770256,-84.292996,141,E College Ave,,,Decatur,GA,Dekalb County,30030
217615,Aiken Technical College,45,4,2276 Jefferson Davis Highway,Graniteville,SC,29829,33.533369,-81.842766,2276,Jefferson Davis Hwy,,,Graniteville,SC,Aiken County,29829
126207,Aims Community College,8,1,5401 W. 20th St.,Greeley,CO,80634,40.407069,-104.7676,5401,W 20th St,,,Greeley,CO,Weld County,80634
100654,Alabama A & M University,1,1,4900 Meridian Street,Normal,AL,35762,34.733964,-86.522913,,,,,Normal,AL,Madison County,35762
483975,Alabama College of Osteopathic Medicine,1,2,445 Health Sciences Boulevard,Dothan,AL,36303-2251,31.206152,-85.340704,445,Health Sciences Blvd,,,Dothan,AL,Houston County,36303
488916,Alabama School of Nail Technology & Cosmetology,1,9,202 Commerce Street,Jackson,AL,36545-2718,31.509705,-87.893052,201,Commerce St,,,Jackson,AL,Clarke County,36545
100724,Alabama State University,1,1,915 S Jackson Street,Montgomery,AL,36104-0271,32.365014,-86.295702,915,S Jackson St,,,Montgomery,AL,Montgomery County,36104
199786,Alamance Community College,37,4,1247 Jimmie Kerr Road,Graham,NC,27253-8000,36.0663,-79.357832,1247,Jimmie Kerr Rd,,,Graham,NC,Alamance County,27253
482981,Alamo City Barber College,48,9,8910 Bandera Road Suite 209,San Antonio,TX,78250-3227,29.526838,-98.640212,8910,Bandera Rd,Ste,209,San Antonio,TX,Bexar County,78250
102580,Alaska Bible College,2,2,248 E Elmwood Ave,Palmer,AK,99645,61.598526,-149.11162,248,E Elmwood Ave,,,Palmer,AK,Matanuska-Susitna Borough,99645
103501,Alaska Career College,2,6,1415 E Tudor Road,Anchorage,AK,99507-1033,61.181042,-149.857121,1415,E Tudor Rd,,,Anchorage,AK,Anchorage Municipality,99507
442523,Alaska Christian College,2,5,35109 Royal Place,Soldotna,AK,99669,60.49051,-151.136226,35109,Royal Pl,,,Soldotna,AK,Kenai Peninsula Borough,99669
102669,Alaska Pacific University,2,2,4101 University Dr,Anchorage,AK,99508,61.18941,-149.805809,4101,University Dr,,,Anchorage,AK,Anchorage Municipality,99508
102711,Alaska Vocational Technical Center,2,7,PO Box 889,Seward,AK,99664-0889,60.25281,-149.402123,,,,,Seward,AK,Kenai Peninsula Borough,99664
499556,Albany Beauty Academy,13,9,2231 Dawson Road  Suites I & J,Albany,GA,31707-3200,31.602972,-84.202456,2231,Dawson Rd,,,Albany,GA,Dougherty County,31707
418038,Albany BOCES-Adult Practical Nursing Program,36,7,900  Watervliet Shaker Rd,Albany,NY,12205,42.73724,-73.82296,900,Watervliet Shaker Rd,,,Albany,NY,Albany County,12205
188526,Albany College of Pharmacy and Health Sciences,36,2,106 New Scotland Avenue,Albany,NY,12208-3492,42.65218,-73.77858,106,New Scotland Ave,,,Albany,NY,Albany County,12208
188535,Albany Law School,36,2,80 New Scotland Avenue,Albany,NY,12208,42.651398,-73.77745,80,New Scotland Ave,,,Albany,NY,Albany County,12208
188580,Albany Medical College,36,2,47 New Scotland Ave,Albany,NY,12208-3479,42.653714,-73.777827,47,New Scotland Ave,,,Albany,NY,Albany County,12208
138716,Albany State University,13,1,504 College Drive,Albany,GA,31705,31.572081,-84.144279,504,College Dr,,,Albany,GA,Dougherty County,31705
138682,Albany Technical College,13,4,1704 South Slappey Boulevard,Albany,GA,31701,31.554229,-84.174242,1704,S Slappey Blvd,,,Albany,GA,Dougherty County,31701
385415,Albert Einstein College of Medicine,36,2,1300 Morris Park Avenue,Bronx,NY,10461-1900,40.850969,-73.844361,1300,Morris Park Ave,,,Bronx,NY,Bronx County,10461
128498,Albertus Magnus College,9,2,700 Prospect St,New Haven,CT,06511-1189,41.332688,-72.92287,700,Prospect St,,,New Haven,CT,South Central Connecticut Planning Region,6511
168546,Albion College,26,2,611 E Porter St,Albion,MI,49224,42.243929,-84.745395,611,E Porter St,,,Albion,MI,Calhoun County,49224
132842,Albizu University-Miami,12,2,2173 N.W. 99th Avenue,Miami,FL,33172-2209,25.795436,-80.354425,2173,NW 99th Ave,,,Doral,FL,Miami-Dade County,33172
210571,Albright College,42,2,1621 N. 13th St.,Reading,PA,19612-5234,40.359691,-75.91146,1621,N 13th St,,,Reading,PA,Berks County,19604
175342,Alcorn State University,28,1,1000 ASU Dr Ste 359,Alcorn State,MS,39096-7500,31.870999,-91.129992,1000,Asu Dr,Ste,359,Lorman,MS,Claiborne County,39096
495192,Alder Graduate School of Education,6,2,2946 Broadway,Redwood City,CA,94062,37.486264,-122.239066,2946,Broadway,,,Redwood City,CA,San Mateo County,94062
476735,Alexander Academy,25,9,55 Massachusetts Avenue,Lunenburg,MA,01462-0000,42.587132,-71.769775,55,Massachusetts Ave,,,Lunenburg,MA,Worcester County,1462
483425,Alexander Paul Institute of Hair Design,37,9,1011 Charles Blvd Ste A,Greenville,NC,27858-3344,35.604849,-77.371657,1011,Charles Blvd,Ste,A,Greenville,NC,Pitt County,27858
172918,Alexandria Technical & Community College,27,4,1601 Jefferson Streeet,Alexandria,MN,56308,45.872822,-95.372616,1601,Jefferson St,,,Alexandria,MN,Douglas County,56308
188641,Alfred University,36,2,One Saxon Drive,Alfred,NY,14802-1205,42.254113,-77.783975,1,Saxon Dr,,,Alfred,NY,Allegany County,14802
487995,Alhambra Medical University,6,3,2215 W. Mission Road,Alhambra,CA,91803,34.080237,-118.148688,2215,W Mission Rd,,,Alhambra,CA,Los Angeles County,91803
156189,Alice Lloyd College,21,2,100 Purpose Rd,Pippa Passes,KY,41844,37.33427,-82.878559,100,Purpose Rd,,,Pippa Passes,KY,Knott County,41844
498793,All In The Wrist Barber Academy,10,9,202 North Dupont Blvd.,Smyrna,DE,19977-1511,39.305074,-75.605401,202,N Dupont Blvd,,,Smyrna,DE,Kent County,19977
210599,All-State Career School,42,6,50 West Powhattan Avenue,Essington,PA,19029,39.86641,-75.300224,50,Powhattan Ave,,,Essington,PA,Delaware County,19029
418658,All-State Career School-Pittsburgh,42,9,1200 Lebanon Road,West Mifflin,PA,15122,40.358282,-79.937149,1200,Lebanon Rd,,,West Mifflin,PA,Allegheny County,15122
373784,All-State Career-Baltimore,24,9,2200 Broening Hwy Ste 160,Baltimore,MD,21224,39.265076,-76.54362,2200,Broening Hwy,Ste,160,Baltimore,MD,Baltimore City,21224
108807,Allan Hancock College,6,4,800 South College Drive,Santa Maria,CA,93454-6399,34.943851,-120.421482,800,S College Dr,,,Santa Maria,CA,Santa Barbara County,93454
161688,Allegany College of Maryland,24,4,12401 Willowbrook Rd SE,Cumberland,MD,21502-2596,39.651558,-78.735941,12401,Willowbrook Rd,,,Cumberland,MD,Allegany County,21502
210669,Allegheny College,42,2,520 N Main St,Meadville,PA,16335-3902,41.648645,-80.147226,520,N Main St,,,Meadville,PA,Crawford County,16335
200873,Allegheny Wesleyan College,39,2,2161 Woodsdale Rd,Salem,OH,44460-9598,40.866902,-80.862155,2161,Woodsdale Rd,,,Salem,OH,Columbiana County,44460
152798,Allen College,19,2,1990 Heath St,Waterloo,IA,50703-1999,42.53107,-92.338411,1990,Heath St,,,Waterloo,IA,Black Hawk County,50703
154642,Allen County Community College,20,4,1801 N Cottonwood,Iola,KS,66749,37.938255,-95.399639,1801,N Cottonwood St,,,Iola,KS,Allen County,66749
188650,Allen School-Brooklyn,36,9,188 Montague Street,Brooklyn,NY,11201,40.693887,-73.991458,188,Montague St,,,Brooklyn,NY,Kings County,11201
415987,Allen School-Jamaica,36,9,163-18 Jamaica Avenue,Jamaica,NY,11432,40.704763,-73.796299,163-18,Jamaica Ave,,,Jamaica,NY,Queens County,11432
469610,Allen School-Phoenix,4,9,15650 North Black Canyon Highway  B210,Phoenix,AZ,85053-4064,33.630003,-112.117497,15650,N Black Canyon Hwy,,,Phoenix,AZ,Maricopa County,85053
217624,Allen University,45,2,1530 Harden Street,Columbia,SC,29204,34.009846,-81.020647,1530,Harden St,,,Columbia,SC,Richland County,29204
490522,Allgood Beauty Institute,48,9,8200 Stonebrook Parkway Suite 202,Frisco,TX,75034,33.140531,-96.812724,8200,Stonebrook Pkwy,Ste,202,Frisco,TX,Collin County,75034
483850,Alliance Computing Solutions,36,9,3660 Main Street  4th Floor,Flushing,NY,11354-6507,40.761601,-73.83132,36-60,Main St,,,Flushing,NY,Queens County,11354
110468,Alliant International University-San Diego,6,3,10455 Pomerado Road,San Diego,CA,92131,32.896339,-117.096296,10455,Pomerado Rd,,,San Diego,CA,San Diego County,92131
490151,Allied Health Careers Institute,47,9,1233 Commerce Park,Murfreesboro,TN,37130-5996,35.827844,-86.391516,1233,Commerce Park,,,Murfreesboro,TN,Rutherford County,37130
461111,Allstate Hairstyling & Barber College,39,6,2546 Lorain Avenue,Cleveland,OH,44113-3413,41.483972,-81.704262,2546,Lorain Ave,,,Cleveland,OH,Cuyahoga County,44113
248192,Allure Beauty College,21,9,74  Parkway Plaza Loop,Whitesburg,KY,41858,37.123363,-82.838939,74,Parkway Plaza Loop,,,Whitesburg,KY,Letcher County,41858
168591,Alma College,26,2,614 W Superior,Alma,MI,48801-1599,43.378854,-84.67264,614,W Superior St,,,Alma,MI,Gratiot County,48801
168607,Alpena Community College,26,1,665 Johnson St,Alpena,MI,49707,45.079757,-83.44782,665,Johnson St,,,Alpena,MI,Alpena County,49707
210748,Altoona Beauty School Inc,42,9,1528 Valley View Blvd.,Altoona,PA,16602-6039,40.501832,-78.3878,1528,Valley View Blvd,,,Altoona,PA,Blair County,16602
210775,Alvernia University,42,2,400 Saint Bernardine St,Reading,PA,19607-1799,40.313338,-75.932958,400,St Bernardine St,,,Reading,PA,Berks County,19607
238193,Alverno College,55,2,3400 S 43rd  St,Milwaukee,WI,53234-3922,42.98356,-87.96548,3400,S 43rd St,,,Milwaukee,WI,Milwaukee County,53219
222567,Alvin Community College,48,4,3110 Mustang Rd,Alvin,TX,77511-4898,29.396144,-95.239179,3110,Mustang Rd,,,Alvin,TX,Brazoria County,77511
222576,Amarillo College,48,4,2011 S. Washington,Amarillo,TX,79109,35.191855,-101.848229,2011,S Washington St,,,Amarillo,TX,Potter County,79109
222628,Amberton University,48,2,1700 Eastgate Dr,Garland,TX,75041-5595,32.859907,-96.652958,1700,Eastgate Dr,,,Garland,TX,Dallas County,75041
457527,Ambria College of Nursing,17,3,5210 Trillium Blvd,Hoffman Estates,IL,60192,42.078093,-88.209811,5210,Trillium Blvd,,,Hoffman Estates,IL,Cook County,60192
490081,America Evangelical University,6,2,1204 W 163rd St,Gardena,CA,90247-4432,33.883012,-118.295905,1204,W 163rd St,,,Gardena,CA,Los Angeles County,90247
188687,American Academy McAllister Institute of Funeral Service,36,5,1501 Broadway  11th Floor  Suite 1102,New York,NY,10036,40.757096,-73.9864,1501,Broadway,Ste,1102,New York,NY,New York County,10036
142887,American Academy of Art College,17,3,332 S Michigan Ave,Chicago,IL,60604-4302,41.877348,-87.624777,332,S Michigan Ave,,,Chicago,IL,Cook County,60604
457396,American Academy of Cosmetology,12,9,1330 Blanding Blvd Ste 125,Orange Park,FL,32065,30.123754,-81.798765,1330,Blanding Blvd,Ste,125,Orange Park,FL,Clay County,32065
108852,American Academy of Dramatic Arts-Los Angeles,6,5,1336 North La Brea Avenue,Los Angeles,CA,90028,34.09549,-118.34389,1336,N La Brea Ave,,,Los Angeles,CA,Los Angeles County,90028
188678,American Academy of Dramatic Arts-New York,36,5,120 Madison Ave,New York,NY,10016,40.745515,-73.98476,120,Madison Ave,,,New York,NY,New York County,10016
446002,American Academy of Health and Wellness,27,3,2233 Hamline Ave N  Suite 432,Roseville,MN,55113,45.008179,-93.157973,2233,Hamline Ave N,Ste,432,Saint Paul,MN,Ramsey County,55113
444370,American Advanced Technicians Institute,12,9,6801 W 20th St,Hialeah,FL,33014,25.884887,-80.323052,6801,W 20th Ave,,,Hialeah,FL,Miami-Dade County,33014
219505,American Baptist College,47,2,1800 Baptist World Ctr Dr,Nashville,TN,37207-9980,36.19795,-86.784209,1800,Baptist World Center Dr,,,Nashville,TN,Davidson County,37207
490258,American Barber and Beauty Academy,42,9,733 Lancaster Avenue,Reading,PA,19607-1602,40.316972,-75.939776,733,Lancaster Ave,,,Reading,PA,Berks County,19607
459541,American Beauty Academy,49,9,87 W 600 S,Payson,UT,84651,40.034664,-111.733561,87,W 600 S,,,Payson,UT,Utah County,84651
489247,American Beauty Academy-West Valley Campus,49,9,3695 S Redwood Rd Ste #9,West Valley City,UT,84119,40.692189,-111.938295,3695,S Redwood Rd,Unit,9,West Valley City,UT,Salt Lake County,84119
108977,American Beauty College,6,9,652 S. Sunset Ave,West Covina,CA,91790,34.069412,-117.936991,652,S Sunset Ave,,,West Covina,CA,Los Angeles County,91790
189477,American Beauty School,36,9,1380 Metropolitan Avenue,Bronx,NY,10462,40.835357,-73.860775,1380,Metropolitan Ave,,,Bronx,NY,Bronx County,10462
490391,American Beauty Schools,12,9,8100 Southwest 8th Street,Miami,FL,33144-0000,25.761928,-80.326633,8100,SW 8th St,,,Miami,FL,Miami-Dade County,33144
441052,American Career College-Anaheim,6,6,1200 N. Magnolia Ave.,Anaheim,CA,92801-0000,33.849912,-117.975629,1200,N Magnolia Ave,,,Anaheim,CA,Orange County,92801
109040,American Career College-Los Angeles,6,6,4021 Rosewood Avenue,Los Angeles,CA,90004,34.07919,-118.29256,4021,W Rosewood Ave,,,Los Angeles,CA,Los Angeles County,90004
447768,American Career College-Ontario,6,6,3130 East Sedona Court,Ontario,CA,91764,34.06833,-117.583848,3130,E Sedona Ct,,,Ontario,CA,San Bernardino County,91764
429085,American College of Acupuncture and Oriental Med,48,3,9100 Park  West Drive,Houston,TX,77063-4104,29.735779,-95.524759,9100,Park West Dr,,,Houston,TX,Harris County,77063
486169,American College of Barbering,21,9,11320 North Preston Highway,Louisville,KY,40229-2862,38.084571,-85.670133,11320,Preston Hwy,,,Louisville,KY,Jefferson County,40229
422835,American College of Healthcare and Technology,6,6,11801 Pierce St.  Suite 100,Riverside,CA,92505,33.901146,-117.493143,11801,Pierce St,Ste,100,Riverside,CA,Riverside County,92505
483009,American College of Healthcare and Technology,6,9,6330 Pacific Blvd Ste 201,Huntington Park,CA,90255,33.982668,-118.224755,6330,Pacific Blvd,Ste,201,Huntington Park,CA,Los Angeles County,90255
497736,American College of Healthcare and Technology-Santa Ana,6,9,1840 East 17th Street,Santa Ana,CA,92705-8680,33.759741,-117.840826,1840,E 17th St,,,Santa Ana,CA,Orange County,92705
443599,American College of Healthcare Sciences,41,3,5005 S. Macadam Ave,Portland,OR,97239,45.486961,-122.675907,5005,S Macadam Ave,,,Portland,OR,Multnomah County,97239
485698,American College of the Building Arts,45,2,649 Meeting Street,Charleston,SC,29403-4223,32.805184,-79.94666,649,Meeting St,,,Charleston,SC,Charleston County,29403
108870,American Film Institute Conservatory,6,2,2021 N Western Ave,Los Angeles,CA,90027-1625,34.10746,-118.30946,2021,N Western Ave,,,Los Angeles,CA,Los Angeles County,90027
153463,American Hair Academy,19,6,304 South Iris,Mt. Pleasant,IA,52641,40.96264,-91.524917,304,S Iris St,,,Mount Pleasant,IA,Henry County,52641
441636,American Institute of Alternative Medicine,39,3,6685 Doubletree Ave,Columbus,OH,43229,40.102623,-82.988389,6685,Doubletree Ave,,,Columbus,OH,Franklin County,43229
487852,American Institute of Alternative Medicine,34,9,646 Rt. 18  Suite 210,East Brunswick,NJ,8816,40.433824,-74.387111,646,State Highway 18,Ste,210,East Brunswick,NJ,Middlesex County,8816
447883,American Institute of Beauty,12,9,3665 East Bay Drive Suite 164,Largo,FL,33771,27.915119,-82.748934,3665,E Bay Dr,Ste,164,Largo,FL,Pinellas County,33771
493682,American Institute of Healthcare & Technology,9,6,480 Lordship Boulevard,Stratford,CT,06615-7149,41.170701,-73.15087,480,Lordship Blvd,,,Stratford,CT,Greater Bridgeport Planning Region,6615
447795,American Institute of Massage Therapy,6,9,1560 Brookhollow Drive  Suite 222,Santa Ana,CA,92705-5411,33.713398,-117.847903,1560,S Brookhollow Dr,Ste,222,Santa Ana,CA,Orange County,92705
455202,American Institute of Medical Sciences & Education,34,6,4500 New Brunswick Ave,Piscataway,NJ,8854,40.561148,-74.437368,4500,New Brunswick Ave,,,Piscataway,NJ,Middlesex County,8854
497329,American Institute-Cherry Hill,34,9,2201 Route 38 8th Floor,Cherry Hill,NJ,08002-4309,39.939356,-75.015411,2201,State Highway 38,Fl,8,Cherry Hill,NJ,Camden County,8002
184092,American Institute-Clifton,34,6,346 LEXINGTON AVE,CLIFTON,NJ,7011,40.873442,-74.13021,346,Lexington Ave,,,Clifton,NJ,Passaic County,7011
490869,American Institute-Somerset,34,6,80 Cottontail Lane,Somerset,NJ,08873-1100,40.550871,-74.544096,80,Cottontail Ln,,,Somerset,NJ,Somerset County,8873
482963,American Institute-Toms River,34,6,2363 Lakewood Rd,Toms River,NJ,8755,40.044535,-74.220889,2363,Lakewood Rd,,,Toms River,NJ,Ocean County,8755
129482,American Institute-West Hartford,9,6,99 South Street,West Hartford,CT,06110-1922,41.726946,-72.72581,97,South St,,,West Hartford,CT,Capitol Planning Region,6110
445027,American InterContinental University System,4,3,2200 E Germann Road  Suite 100,Chandler,AZ,85286,33.278574,-111.803985,2200,E Germann Rd,Ste,100,Chandler,AZ,Maricopa County,85286
438586,American InterContinental University-Atlanta,13,3,6600 Peachtree Dunwoody Road  500 Embassy Row,Atlanta,GA,30328,33.937191,-84.356319,6600,Peachtree Dunwoody Rd,,500,Atlanta,GA,Fulton County,30328
445133,American InterContinental University-Houston,48,3,9999 Richmond Avenue,Houston,TX,77042,29.728044,-95.548171,9999,Richmond Ave,,,Houston,TX,Harris County,77042
164447,American International College,25,2,1000 State Street,Springfield,MA,1109,42.113892,-72.557574,1000,State St,,,Springfield,MA,Hampden County,1109
116846,American Jewish University,6,2,15600 Mulholland Dr,Los Angeles,CA,90077-1519,34.12928,-118.47146,15600,W Mulholland Dr,,,Los Angeles,CA,Los Angeles County,90077
492643,American Massage & Bodywork Institute,51,9,1593 Spring Hill Road  Suite 210,Vienna,VA,22182-2245,38.926124,-77.244555,1593,Spring Hill Rd,Ste,210,Vienna,VA,Fairfax County,22182
475714,American Medical Academy,12,3,12215 SW 112 Street,Miami,FL,33186-4830,25.662731,-80.393365,12215,SW 112th St,,,Miami,FL,Miami-Dade County,33186
461263,American Medical Sciences Center,6,3,225 West Broadway  Suite 410,Glendale,CA,91204-5108,34.147286,-118.257188,225,W Broadway,Ste,410,Glendale,CA,Los Angeles County,91204
188854,American Musical and Dramatic Academy,36,2,211 West 61st Street,New York,NY,10023,40.772137,-73.987552,211,W 61st St,,,New York,NY,New York County,10023
232797,American National University,51,3,1813 East Main Street,Salem,VA,24153,37.299769,-80.023536,1813,E Main St,,,Salem,VA,Salem City,24153
157021,American National University-Pikeville,21,3,130 South Mayo Trail,Pikeville,KY,41501-1520,37.472254,-82.528188,130,S Mayo Trl,,,Pikeville,KY,Pike County,41501
449339,American Public University System,54,3,111 W Congress St,Charles Town,WV,25414,39.287789,-77.860075,111,W Congress St,,,Charles Town,WV,Jefferson County,25414
109208,American River College,6,4,4700 College Oak Dr,Sacramento,CA,95841-4286,38.649328,-121.348149,4700,College Oak Dr,,,Sacramento,CA,Sacramento County,95841
461573,American Trade School,29,6,3925 Industrial Drive,Saint Ann,MO,63074-1807,38.728687,-90.380163,3925,Industrial Dr,,,Saint Ann,MO,St. Louis County,63074
131159,American University,11,2,4400 Massachusetts Ave NW,Washington,DC,20016-8001,38.939089,-77.088417,4400,Massachusetts Ave NW,,,Washington,DC,District of Columbia,20016
433004,American University of Health Sciences,6,3,1600 East Hill St,Signal Hill,CA,90755-3612,33.796197,-118.17145,1600,E Hill St,,,Signal Hill,CA,Los Angeles County,90755
492023,Americare Technical School,17,9,505 Busse Highway,Park Ridge,IL,60068-3143,42.01705,-87.84191,505,Busse Hwy,,,Park Ridge,IL,Cook County,60068
486415,AMG School of Nursing,36,6,110 Bridge Street,Brooklyn,NY,11201-1728,40.701016,-73.984935,110,Bridge St,,,Brooklyn,NY,Kings County,11201
164465,Amherst College,25,2,Boltwood Avenue,Amherst,MA,01002-5000,42.374562,-72.518778,,Boltwood Ave,,,Amherst,MA,Hampshire County,1002
100690,Amridge University,1,2,1200 Taylor Rd,Montgomery,AL,36117-3553,32.362725,-86.174022,1200,Taylor Rd,,,Montgomery,AL,Montgomery County,36117
483595,Ana G. Mendez University,12,2,5575 South Semoran Blvd. Suite #502,Orlando,FL,32822,28.483325,-81.307685,5575,S Semoran Blvd,Ste,502,Orlando,FL,Orange County,32822
151865,Anabaptist Mennonite Biblical Seminary,18,2,3003 Benham Ave,Elkhart,IN,46517-1999,41.655886,-85.972144,3003,Benham Ave,,,Elkhart,IN,Elkhart County,46517
150066,Anderson University,18,2,1100 E 5th St,Anderson,IN,46012-3495,40.111822,-85.666109,1100,E 5th St,,,Anderson,IN,Madison County,46012
217633,Anderson University,45,2,316 Boulevard,Anderson,SC,29621-4035,34.513898,-82.63887,316,Blvd,,,Anderson,SC,Anderson County,29621
138761,Andrew College,13,2,501College St,Cuthbert,GA,39840-5550,31.771799,-84.795146,501,College St,,,Cuthbert,GA,Randolph County,39840
168740,Andrews University,26,2,4150 Administration Drive  Room 136,Berrien Springs,MI,49104,41.963699,-86.358972,,,,,Berrien Springs,MI,Berrien County,49104
457299,Angeles College,6,3,3440 Wilshire Blvd Ste 310,Los Angeles,CA,90010,34.06151,-118.29944,3440,W Wilshire Blvd,Ste,310,Los Angeles,CA,Los Angeles County,90010
457314,Angeles Institute,6,9,17100 PIONEER BLVD  SUITE 170,ARTESIA,CA,90701-2713,33.875798,-118.080062,17100,Pioneer Blvd,Ste,170,Artesia,CA,Los Angeles County,90701
222822,Angelina College,48,4,3500 South First,Lufkin,TX,75902-1768,31.287408,-94.730281,3500,S 1st St,,,Lufkin,TX,Angelina County,75901
222831,Angelo State University,48,1,2601 W. Avenue N,San Angelo,TX,76909,31.442623,-100.465525,2601,W Ave N,,,San Angelo,TX,Tom Green County,76909
490425,Ann Webb Skin Institute,48,9,11701 Jollyville Road,Austin,TX,78759-3936,30.419521,-97.751789,11701,Jollyville Rd,,,Austin,TX,Travis County,78759
164492,Anna Maria College,25,2,50 Sunset Lane,Paxton,MA,01612-1198,42.329397,-71.918493,50,Sunset Ln,,,Paxton,MA,Worcester County,1612
161767,Anne Arundel Community College,24,4,101 College Pky,Arnold,MD,21012-1895,39.049381,-76.511939,101,College Pkwy,,,Arnold,MD,Anne Arundel County,21012
475705,Annenberg School of Nursing,6,8,19300 Sherman Way,Reseda,CA,91335-5426,34.20088,-118.55408,19300,W Sherman Way,,,Reseda,CA,Los Angeles County,91335
172954,Anoka Technical College,27,4,1355 Highway 10 West,Anoka,MN,55303,45.21675,-93.417431,1355,Highway 10,,,Anoka,MN,Anoka County,55303
172963,Anoka-Ramsey Community College,27,4,11200 Mississippi Blvd NW,Coon Rapids,MN,55433-3470,45.172963,-93.351691,11200,Mississippi Blvd NW,,,Minneapolis,MN,Anoka County,55433
491978,Another Level Barbering and Cosmetology School,51,9,102 North Sycamore Street,Petersburg,VA,23803-3245,37.228589,-77.404039,102,Sycamore St N,,,Petersburg,VA,Petersburg City,23803
109350,Antelope Valley Community College District,6,1,3041 West  Ave K,Lancaster,CA,93536-5426,34.675029,-118.184372,3041,W Ave K,,,Lancaster,CA,Los Angeles County,93536
496636,Antigua College International,12,3,14505 Commerce Way,Miami Lakes,FL,33016-1511,25.904658,-80.32781,14505,Commerce Way,,,Miami Lakes,FL,Miami-Dade County,33016
483018,Antioch College,39,2,1 Morgan Pl,Yellow Springs,OH,45387,39.799855,-83.888347,1,Morgan Pl,,,Yellow Springs,OH,Greene County,45387
245892,Antioch University,39,2,900 Dayton St,Yellow Springs,OH,45387,39.802781,-83.908266,900,Dayton St,,,Yellow Springs,OH,Greene County,45387
245838,Antioch University-Los Angeles,6,2,400 Corporate Pointe,Culver City,CA,90230-7615,33.988734,-118.384684,400,Corporate Pointe,,,Culver City,CA,Los Angeles County,90230
245865,Antioch University-New England,33,2,40 Avon St,Keene,NH,3431,42.931831,-72.293675,40,Avon St,,,Keene,NH,Cheshire County,3431
245847,Antioch University-Santa Barbara,6,2,602 Anacapa Street,Santa Barbara,CA,93101,34.418942,-119.695551,602,Anacapa St,,,Santa Barbara,CA,Santa Barbara County,93101
245883,Antioch University-Seattle,53,2,2326 6th Ave,Seattle,WA,98121-1814,47.61722,-122.342451,2326,6th Ave,,,Seattle,WA,King County,98121
429094,AOMA Graduate School of Integrative Medicine,48,3,4701 Westgate Blvd,Austin,TX,78745,30.272407,-97.793355,,Westgate Cir,,,Austin,TX,Travis County,78746
485342,Aparicio-Levy Technical College,12,7,10119 East Ellicott Street,Tampa,FL,33610,27.990525,-82.332449,10119,E Ellicott St,,,Tampa,FL,Hillsborough County,33610
490434,Apex Academy Hair Skin Nails School of Cosmetology,39,9,1788 West Fourth Street,Ontario,OH,44906-1793,40.771538,-82.578064,1788,W 4th St,,,Ontario,OH,Richland County,44906
494986,Apex College of Veterinary Technology,8,6,330 South El Paso Street,Colorado Springs,CO,80903,38.828269,-104.813488,330,S El Paso St,,,Colorado Springs,CO,El Paso County,80903
188890,Apex Technical School,36,9,11-05 44th Drive,Long Island City,NY,11101,40.748647,-73.949331,11-5,44th Dr,,,Long Island City,NY,Queens County,11101
201034,Apollo Career Center,39,7,3325 Shawnee Rd,Lima,OH,45806-1497,40.690935,-84.151081,3325,Shawnee Rd,,,Lima,OH,Allen County,45806
237127,Appalachian Beauty School,21,9,25429 US HWY 119N,Belfry,KY,41514,37.640727,-82.313128,,,,,Belfry,KY,Pike County,41514
237136,Appalachian Bible College,54,2,161 College Drive,Mount Hope,WV,25880-9557,37.852633,-81.200051,161,College Dr,,,Mount Hope,WV,Raleigh County,25880
449922,Appalachian College of Pharmacy,51,2,1060 Dragon Road,Oakwood,VA,24631,37.211456,-82.005226,1060,Dragon Rd,,,Oakwood,VA,Buchanan County,24631
432348,Appalachian School of Law,51,2,1169 Edgewater Drive,Grundy,VA,24614,37.27802,-82.096463,1169,Edgewater Dr,,,Grundy,VA,Buchanan County,24614
197869,Appalachian State University,37,1,287 Rivers St,Boone,NC,28608,36.210764,-81.677397,287,Rivers St,,,Boone,NC,Watauga County,28607
417716,Applied Technology Services,29,7,12721 West Watson Road,Sunset Hills,MO,63127,38.542261,-90.413307,12721,W Watson Rd,,,Saint Louis,MO,St. Louis County,63127
168786,Aquinas College,26,2,1700 Fulton St. E,Grand Rapids,MI,49506-1801,42.960394,-85.627416,1700,Fulton St E,,,Grand Rapids,MI,Kent County,49506
176600,Aquinas Institute of Theology,29,2,23 South Spring Avenue,Saint Louis,MO,63108-3323,38.634362,-90.237883,23,S Spring Ave,,,Saint Louis,MO,St. Louis City,63108
126289,Arapahoe Community College,8,1,5900 S. Santa Fe Dr.,Littleton,CO,80160-9002,39.609745,-105.018719,5900,S Santa Fe Dr,,,Littleton,CO,Arapahoe County,80120
211088,Arcadia University,42,2,450 S Easton Rd,Glenside,PA,19038-3295,40.091984,-75.16555,450,S Easton Rd,,,Glenside,PA,Montgomery County,19038
487791,Arclabs,45,9,2615 Highway 153  B-3,Piedmont,SC,29673,34.770972,-82.461325,2615,Highway 153,Ste,B3,Piedmont,SC,Anderson County,29673
103954,Arizona Academy of Beauty,4,9,5631 E Speedway Blvd,Tucson,AZ,85712,32.237289,-110.872253,5631,E Speedway Blvd,,,Tucson,AZ,Pima County,85712
105899,Arizona Christian University,4,2,1 W. Firestorm Way,Glendale,AZ,85306-3216,33.621444,-112.181362,1,W Firestorm Way,,,Glendale,AZ,Maricopa County,85306
499389,Arizona College of Nursing-Aurora,8,3,3131 South Vaughn Way Suite 525,Aurora,CO,80014-3511,39.660375,-104.836861,3131,S Vaughn Way,Ste,525,Aurora,CO,Arapahoe County,80014
499398,Arizona College of Nursing-Cincinnati,39,3,11500 Northlake Drive Suite 105,Cincinnati,OH,45249-1655,39.275503,-84.347979,11500,Northlake Dr,Ste,105,Cincinnati,OH,Hamilton County,45249
499404,Arizona College of Nursing-Cleveland,39,3,3401 Enterprise Parkway,Beachwood,OH,44122-7343,41.465952,-81.49339,3401,Enterprise Pkwy,,,Beachwood,OH,Cuyahoga County,44122
494162,Arizona College of Nursing-Dallas,48,3,8330 LBJ Freeway Suite 100,Dallas,TX,75243-1200,32.923092,-96.759851,8330,L B J Fwy,Ste,100,Dallas,TX,Dallas County,75243
498447,Arizona College of Nursing-Falls Church,51,3,3130 Fairview Park Drive Suite 800,Falls Church,VA,22042-4566,38.860558,-77.218231,3130,Fairview Park Dr,Ste,800,Falls Church,VA,Fairfax County,22042
495439,Arizona College of Nursing-Fort Lauderdale,12,3,600 Corporate Drive Suite 200,Fort Lauderdale,FL,33334-3637,26.205086,-80.137645,600,Corporate Dr,Ste,200,Fort Lauderdale,FL,Broward County,33334
487375,Arizona College of Nursing-Las Vegas,32,3,8363 West Sunset Road  Suite 200,Las Vegas,NV,89113,36.067446,-115.274128,8363,W Sunset Rd,Ste,200,Las Vegas,NV,Clark County,89113
498456,Arizona College of Nursing-Ontario,6,3,3401 North Centre Lake Drive,Ontario,CA,91761-1201,34.066308,-117.579036,3401,N Centre Lake Dr,,,Ontario,CA,San Bernardino County,91761
495457,Arizona College of Nursing-Phoenix,4,3,16404 North Black Canyon Highway  Suite 200,Phoenix,AZ,85053-4058,33.635435,-112.117257,16404,N Black Canyon Hwy,Ste,200,Phoenix,AZ,Maricopa County,85053
497268,Arizona College of Nursing-Salt Lake City,49,3,434 West Ascension Way  Suite 122,Murray,UT,84123-2790,40.656269,-111.903551,434,W Ascension Way,Ste,122,Salt Lake City,UT,Salt Lake County,84123
499370,Arizona College of Nursing-Sarasota,12,3,8043 Cooper Creek Boulevard,University Park,FL,34201-2142,27.397255,-82.452119,8043,Cooper Creek Blvd,,,University Park,FL,Manatee County,34201
498049,Arizona College of Nursing-Southfield,26,3,26200 Lasher Road Suite 400,Southfield,MI,48033-7157,42.459322,-83.293205,,,,,Southfield,MI,Oakland County,48033
495420,Arizona College of Nursing-Tampa,12,3,1411 N West Shore Blvd  Suite 200,Tampa,FL,33607,27.955589,-82.523342,1411,NW Shore Blvd,Ste,200,Tampa,FL,Hillsborough County,33607
421708,Arizona College of Nursing-Tempe,4,3,1620 West Fountainhead Parkway,Tempe,AZ,85282-1840,33.403228,-111.9659,1620,W Fountainhead Pkwy,,,Tempe,AZ,Maricopa County,85282
495448,Arizona College of Nursing-Tucson,4,3,5285 East Williams Circle  Suite 1000,Tucson,AZ,85711,32.220999,-110.879952,5285,E Williams Cir,Ste,1000,Tucson,AZ,Pima County,85711
497277,Arizona College-Glendale,4,6,4425 West Olive Avenue Suite 300,Glendale,AZ,85302-3843,33.566402,-112.153678,4425,W Olive Ave,Ste,300,Glendale,AZ,Maricopa County,85302
482990,Arizona College-Mesa,4,9,163 N Dobson Rd,Mesa,AZ,85201,33.41832,-111.87411,163,N Dobson Rd,,,Mesa,AZ,Maricopa County,85201
450951,Arizona Culinary Institute,4,9,10585 N 114th St Ste 401,Scottsdale,AZ,85259,33.581847,-111.831198,10585,N 114th St,Ste,401,Scottsdale,AZ,Maricopa County,85259
446039,Arizona School of Acupuncture and Oriental Medicine,4,3,2856 E Fort Lowell Rd,Tucson,AZ,85716-1518,32.264629,-110.929249,2856,E Ft Lowell Rd,,,Tucson,AZ,Pima County,85716
484163,Arizona School of Integrative Studies,4,9,209 W Main St,Mesa,AZ,85201,33.414837,-111.837208,209,W Main St,,,Mesa,AZ,Maricopa County,85201
104151,Arizona State University Campus Immersion,4,1,University Drive and Mill Avenue,Tempe,AZ,85287,33.417643,-111.939923,,S Mill Ave,,,Tempe,AZ,Maricopa County,85281
483124,Arizona State University Digital Immersion,4,1,1365 N Scottsdale Rd,Scottsdale,AZ,85257,33.463626,-111.924927,1365,N Scottsdale Rd,,,Scottsdale,AZ,Maricopa County,85257
104160,Arizona Western College,4,4,2020 S. Avenue 8E,Yuma,AZ,85365-8834,32.689619,-114.632966,2059,South Ave,,8E,Yuma,AZ,Yuma County,85364
106306,Arkansas Baptist College,5,2,1600 Dr. Martin Luther King Jr. Drive,Little Rock,AR,72202-6068,34.734244,-92.290263,1600,Martin Luther King Jr Dr,,,Little Rock,AR,Pulaski County,72202
106324,Arkansas Beauty College,5,9,109 N Commerce St,Russellville,AR,72801,35.278993,-93.135259,109,N Commerce Ave,,,Russellville,AR,Pope County,72801
106315,Arkansas Beauty School-Little Rock,5,9,8521 Geyer Springs Road Unit 30,Little Rock,AR,72209,34.672171,-92.343323,8521,Geyer Springs Rd,Ste,30,Little Rock,AR,Pulaski County,72209
488527,Arkansas Colleges of Health Education,5,2,7000 Chad Colley Blvd.,Fort Smith,AR,72916-0366,35.317467,-94.319142,7000,Chad Colley Blvd,,,Fort Smith,AR,Sebastian County,72916
107327,Arkansas Northeastern College,5,4,2501 S Division,Blytheville,AR,72316-1109,35.898541,-89.92099,2501,S Division St,,,Blytheville,AR,Mississippi County,72315
106458,Arkansas State University,5,1,2105 East  Aggie Road,Jonesboro,AR,72401,35.842386,-90.680106,2105,Aggie Rd,,,Jonesboro,AR,Craighead County,72401
107318,Arkansas State University Mid-South,5,4,2000 W.  Broadway,West Memphis,AR,72301-3829,35.145701,-90.222077,2000,W Broadway Ave,,,West Memphis,AR,Crittenden County,72301
107521,Arkansas State University Three Rivers,5,4,One College Circle,Malvern,AR,72104-0816,34.513159,-93.120479,101,College Dr,,,Hot Springs National Park,AR,Garland County,71913
106449,Arkansas State University-Beebe,5,4,1000 Iowa Street,Beebe,AR,72012-1000,35.070547,-91.89514,1000,W Iowa St,,,Beebe,AR,White County,72012
420538,Arkansas State University-Mountain Home,5,4,1600 South College Street,Mountain Home,AR,72653,36.320565,-92.387838,1600,S College St,,,Mountain Home,AR,Baxter County,72653
440402,Arkansas State University-Newport,5,4,7648 Victory Blvd,Newport,AR,72112,35.638998,-91.189558,7648,Victory Blvd,,,Newport,AR,Jackson County,72112
106467,Arkansas Tech University,5,1,Administration Bldg 200  1509 N Boulder Ave,Russellville,AR,72801-2222,35.277367,-93.134797,200,S Boulder Ave,,,Russellville,AR,Pope County,72801
106351,Arkansas Technical School,5,9,200 E Washington Ave,North Little Rock,AR,72114,34.753844,-92.26643,200,E Washington Ave,,,North Little Rock,AR,Pulaski County,72114
491075,Arkansas Welding Academy,5,9,1920 North Redmond Road,Jacksonville,AR,72076,34.883416,-92.139941,1920,N Redmond Rd,,,Jacksonville,AR,Pulaski County,72076
222877,Arlington Baptist University,48,2,3001 W Division,Arlington,TX,76012-3425,32.737832,-97.157149,3001,W Division St,,,Arlington,TX,Tarrant County,76012
222886,Arlington Career Institute,48,6,901 Ave K,Grand Prairie,TX,75050-2636,32.772375,-97.052797,901,Ave K,,,Grand Prairie,TX,Tarrant County,75050
219587,Arnolds Beauty School,47,9,1179 S Second St,Milan,TN,38358,35.919187,-88.760114,1179,S 2nd St,,,Milan,TN,Gibson County,38358
188915,Arnot Ogden Medical Center,36,5,600 Roe Avenue,Elmira,NY,14905-1676,42.099403,-76.827518,600,Roe Ave,,,Elmira,NY,Chemung County,14905
482194,Arrojo Cosmetology School,36,9,56 King St.,New York,NY,10014,40.727744,-74.005111,56,King St,,,New York,NY,New York County,10014
201061,Art Academy of Cincinnati,39,2,1212 Jackson Street,Cincinnati,OH,45202-1706,39.109005,-84.513984,1212,Jackson St,,,Cincinnati,OH,Hamilton County,45202
109651,Art Center College of Design,6,2,1700 Lida St,Pasadena,CA,91103,34.167455,-118.182634,1700,Lida St,,,Pasadena,CA,Los Angeles County,91103
106494,Arthur's Beauty College,5,9,2600 John Harden Drive,Jacksonville,AR,72076,34.891566,-92.102579,2600,John Harden Dr,,,Jacksonville,AR,Pulaski County,72076
445540,Arthur's Beauty College,5,9,2320 Washington Avenue,Conway,AR,72032,35.109716,-92.445452,2320,Washington Ave,,,Conway,AR,Faulkner County,72032
489830,Arthur's Beauty College,5,9,1903 Grant Avenue Suites  K  L  M,Jonesboro,AR,72401,35.817785,-90.68101,1903,Grant Ave,,,Jonesboro,AR,Craighead County,72401
414063,Artistic Academy of Hair Design,34,9,301 Gibraltar Drive  Suite 1-A,Morris Plains,NJ,7950,40.855525,-74.486272,301,Gibraltar Dr,Ste,1,Morris Plains,NJ,Morris County,7950
460701,Artistic Nails and Beauty Academy-Lakeland,12,9,985 E Memorial Blvd,Lakeland,FL,33801,28.05283,-81.946588,985,E Memorial Blvd,,,Lakeland,FL,Polk County,33801
378886,Artistic Nails and Beauty Academy-Tampa,12,9,4951-A Adamo Drive Ste 120,Tampa,FL,33605,27.951355,-82.402881,4951,Adamo Dr,Ste,120,Tampa,FL,Hillsborough County,33605
156222,Asbury Theological Seminary,21,2,204 N Lexington Ave,Wilmore,KY,40390-1199,37.862057,-84.661101,204,N Lexington Ave,,,Wilmore,KY,Jessamine County,40390
156213,Asbury University,21,2,1 Macklem Dr,Wilmore,KY,40390-1198,37.86232,-84.662245,1,Macklem Dr,,,Wilmore,KY,Jessamine County,40390
458113,Ascent College,51,2,14525 John Marshall Hwy.,Gainesville,VA,20155,38.805991,-77.62466,14525,John Marshall Hwy,,,Gainesville,VA,Prince William County,20155
447777,Asher College,6,6,1215 Howe Ave,Sacramento,CA,95825,38.587662,-121.415706,1215,Howe Ave,,,Sacramento,CA,Sacramento County,95825
234119,Asher Institute of Hampton,51,9,4107 West Mercury Blvd,Hampton,VA,23666,37.026972,-76.425898,4107,W Mercury Blvd,,,Hampton,VA,Hampton City,23666
197887,Asheville-Buncombe Technical Community College,37,4,340 Victoria Rd,Asheville,NC,28801-4897,35.570056,-82.553447,340,Victoria Rd,,,Asheville,NC,Buncombe County,28801
154022,Ashford University,6,3,8620 Spectrum Center Boulevard,San Diego,CA,92123,32.827279,-117.14202,8620,Spectrum Center Blvd,,,San Diego,CA,San Diego County,92123
156231,Ashland Community and Technical College,21,4,1400 College Drive,Ashland,KY,41101-3683,38.469168,-82.650616,1400,College Dr,,,Ashland,KY,Boyd County,41101
201098,Ashland County-West Holmes Career Center,39,7,1783 State Route 60,Ashland,OH,44805-9377,40.799661,-82.268396,1783,State Rte 60,,,Ashland,OH,Ashland County,44805
201104,Ashland University,39,2,401 College Avenue,Ashland,OH,44805,40.862248,-82.319377,401,College Ave,,,Ashland,OH,Ashland County,44805
201131,Ashtabula County Technical and Career Campus,39,7,1565 State Route 167,Jefferson,OH,44047,41.74883,-80.734737,1565,State Rte 167,,,Jefferson,OH,Ashtabula County,44047
475431,ASI Career Institute,34,9,5360 Black Horse Pike Suite 6,Turnersville,NJ,08012-1043,39.756438,-75.045377,5360,State Highway 42,Ste,6,Blackwood,NJ,Gloucester County,8012
393861,Asian-American International Beauty College,6,9,7871 Westminster Blvd,Westminster,CA,92683,33.759411,-117.991566,7871,Westminster Blvd,,,Westminster,CA,Orange County,92683
480994,Aspen Beauty Academy of Laurel,24,9,3535 Fort Meade Road,Laurel,MD,20724,39.099679,-76.822693,3541,Ft Meade Rd,,,Laurel,MD,Anne Arundel County,20724
454829,Aspen University,4,3,4615 E. Elwood St.  Suite 100,Phoenix,AZ,85040,33.412116,-111.981322,4615,E Elwood St,Ste,100,Phoenix,AZ,Maricopa County,85040
214023,ASPIRA City College,42,5,4322 N. 5th Street,Philadelphia,PA,19140-2302,40.017473,-75.135111,4322-42,N 5th St,,,Philadelphia,PA,Philadelphia County,19140
164535,Assabet Valley Regional Technical School,25,7,215 Fitchburg St,Marlborough,MA,1752,42.367833,-71.566804,215,Fitchburg St,,,Marlborough,MA,Middlesex County,1752
485494,Associated Barber College of San Diego,6,9,1333 5th Avenue,San Diego,CA,92101-4210,32.719299,-117.159895,1333,5th Ave,,,San Diego,CA,San Diego County,92101
188942,Associated Beth Rivkah Schools,36,2,310 Crown Street,Brooklyn,NY,11225-0000,40.666119,-73.949787,310,Crown St,,,Brooklyn,NY,Kings County,11225
109721,Associated Technical College-Los Angeles,6,9,1670 Wilshire Blvd,Los Angeles,CA,90017-1604,34.05619,-118.27248,1670,W Wilshire Blvd,,,Los Angeles,CA,Los Angeles County,90017
164562,Assumption University,25,2,500 Salisbury St,Worcester,MA,01609-1296,42.291444,-71.828541,500,Salisbury St,,,Worcester,MA,Worcester County,1609
446127,ATA Career Education,12,3,7351 Spring Hill Drive  Suite 11,Spring Hill,FL,34606,28.452585,-82.595808,7351,Spring Hill Dr,Unit,11,Spring Hill,FL,Hernando County,34606
444361,ATA College,6,6,1810 Gillespie Way  Suite 104,El Cajon,CA,92020,32.82022,-116.982402,1810,Gillespie Way,Ste,104,El Cajon,CA,San Diego County,92020
447935,ATA College,21,6,10200 Linn Station Rd Ste 125,Louisville,KY,40223,38.223842,-85.563328,10200,Linn Station Rd,Ste,125,Louisville,KY,Jefferson County,40223
449728,ATA College,40,6,10820 E 45th St Suite 100,Tulsa,OK,74146,36.099865,-95.856151,10820,E 45th St,Ste,100,Tulsa,OK,Tulsa County,74146
452373,ATA College-Cincinnati,39,3,225 Pictoria Drive  Suite 200,Cincinnati,OH,45246,39.296357,-84.476985,225,Pictoria Dr,Ste,200,Cincinnati,OH,Hamilton County,45246
461768,Atelier Esthetique Institute of Esthetics,36,9,226 East 26th Street 7th Floor,New York,NY,10001,40.746449,-73.995577,226,W 26th St,Fl,7,New York,NY,New York County,10001
476683,Athena Career Academy,39,6,5203 Airport Hwy,Toledo,OH,43615,41.61493,-83.665129,5203,Airport Hwy,,,Toledo,OH,Lucas County,43615
100812,Athens State University,1,1,300 N Beaty St,Athens,AL,35611,34.805969,-86.967409,300,N Beaty St,,,Athens,AL,Limestone County,35611
246813,Athens Technical College,13,4,800 U.S. Hwy 29 North,Athens,GA,30601,33.989063,-83.340263,800,US-29 Hwy N,,,Athens,GA,Clarke County,30601
444325,ATI College-Whittier,6,3,15141 Whittier Blvd Suite 420,Whitter,CA,90603-0000,33.94846,-118.003899,15141,E Whittier Blvd,Ste,420,Whittier,CA,Los Angeles County,90603
419244,Atlanta Institute of Music and Media,13,6,2875 Breckinridge Blvd.  Suite 700,Duluth,GA,30096,33.961187,-84.105451,2875,Breckinridge Blvd,Ste,700,Duluth,GA,Gwinnett County,30096
138901,Atlanta Metropolitan State College,13,1,1630 Metropolitan Parkway  SW,Atlanta,GA,30310-4448,33.708921,-84.404765,1630,Metropolitan Pkwy SW,,,Atlanta,GA,Fulton County,30310
138938,Atlanta School of Massage,13,9,2 Dunwoody Park South,Atlanta,GA,30338,33.920863,-84.310908,2,Dunwoody Park S,,,Atlanta,GA,Dekalb County,30338
138840,Atlanta Technical College,13,4,1560 Metropolitan Pkwy SW,Atlanta,GA,30310-4446,33.71211,-84.404507,1560,Metropolitan Pkwy SW,,,Atlanta,GA,Fulton County,30310
138929,Atlanta's John Marshall Law School,13,3,245 Peachtree Center Ave. NE  Suite 1900,Atlanta,GA,30303,33.761198,-84.385607,245,Peachtree Center Ave NE,Ste,1900,Atlanta,GA,Fulton County,30303
183655,Atlantic Cape Community College,34,4,5100 Black Horse Pike,Mays Landing,NJ,08330-2699,39.461539,-74.680018,5100,Black Horse Pike,,,Mays Landing,NJ,Atlantic County,8330
439446,Atlantic Institute of Oriental Medicine,12,2,100 E Broward Blvd  Suite 100,Fort Lauderdale,FL,33301-3510,26.121916,-80.141853,100,E Broward Blvd,Ste,100,Fort Lauderdale,FL,Broward County,33301
132374,Atlantic Technical College,12,4,4700 Coconut Creek Parkway,Coconut Creek,FL,33063-3902,26.242129,-80.193266,4700,Coconut Creek Pkwy,,,Margate,FL,Broward County,33063
485768,Atlantis University,12,3,1011 Sunnybrook Road,Miami,FL,33136,25.786293,-80.211323,1011,Sunnybrook Rd,,,Miami,FL,Miami-Dade County,33136
201159,Auburn Career Center,39,7,8140 Auburn Rd,Concord Twp,OH,44077,41.648896,-81.243201,8140,Auburn Rd,,,Concord Township,OH,Lake County,44077
100858,Auburn University,1,1, ,Auburn,AL,36849,32.60242,-85.487341,,,,,Auburn University,AL,Lee County,36849
100830,Auburn University at Montgomery,1,1,7440 East Drive,Montgomery,AL,36117-3596,32.367313,-86.177556,7440,East Dr,,,Montgomery,AL,Montgomery County,36117
173045,Augsburg University,27,2,2211 Riverside Ave,Minneapolis,MN,55454,44.96733,-93.240858,2211,Riverside Ave,,,Minneapolis,MN,Hennepin County,55454
447917,Augusta School of Massage,13,9,608 Ponder Place Dr,Evans,GA,30809,33.52916,-82.135418,608,Ponder Place Dr,,,Evans,GA,Columbia County,30809
138956,Augusta Technical College,13,4,3200 Augusta Tech Drive,Augusta,GA,30906,33.416649,-82.048846,3200,Augusta Tech Dr,,,Augusta,GA,Richmond County,30906
482149,Augusta University,13,1,1120 15th St,Augusta,GA,30912,33.470272,-81.987862,1120,15th St,,,Augusta,GA,Richmond County,30912
143084,Augustana College,17,2,639 38th St,Rock Island,IL,61201-2296,41.505635,-90.547489,639,38th St,,,Rock Island,IL,Rock Island County,61201
219000,Augustana University,46,2,2001 S Summit Ave,Sioux Falls,SD,57197-0001,43.526635,-96.736964,2001,S Summit Ave,,,Sioux Falls,SD,Minnehaha County,57197
444556,Auguste Escoffier School of Culinary Arts-Austin,48,6,6020-B Dillard Circle,Austin,TX,78752,30.326599,-97.717818,6020,Dillard Cir,,,Austin,TX,Travis County,78752
454810,Auguste Escoffier School of Culinary Arts-Boulder,8,6,637 S Broadway  Ste H,Boulder,CO,80305,39.98377,-105.250537,637,S Broadway St,Ste,H,Boulder,CO,Boulder County,80305
201177,Aultman College of Nursing and Health Sciences,39,2,2600 6th St SW,Canton,OH,44710-1797,40.796659,-81.402623,2600,6th St SW,,,Canton,OH,Stark County,44710
143118,Aurora University,17,2,347 S Gladstone Ave,Aurora,IL,60506-4892,41.754884,-88.347699,347,S Gladstone Ave,,,Aurora,IL,Kane County,60506
495129,Austin Career Institute,48,9,7215 Cameron Rd,Austin,TX,78752,30.326842,-97.691146,7215,Cameron Rd,,,Austin,TX,Travis County,78752
222983,Austin College,48,2,900 N Grand Ave,Sherman,TX,75090-4400,33.646894,-96.598755,900,N Grand Ave,,,Sherman,TX,Grayson County,75090
222992,Austin Community College District,48,1,6101 Highland Campus Drive,Austin,TX,78752-7000,30.325755,-97.71392,6101,Highland Campus Dr,,,Austin,TX,Travis County,78752
476869,Austin Kade Academy,16,9,1646 South Woodruff Avenue,Idaho Falls,ID,83404-5540,43.482921,-112.001153,1646,S Woodruff Ave,,,Idaho Falls,ID,Bonneville County,83404
499547,Austin Medical Assistant Training,36,6,109-15 72nd Road  Unit 1A,Forest Hills,NY,11375-0000,40.719296,-73.841513,109-15,72nd Rd,Ste,1,Forest Hills,NY,Queens County,11375
219602,Austin Peay State University,47,1,601 College St,Clarksville,TN,37044,36.53504,-87.354113,601,College St,,,Clarksville,TN,Montgomery County,37040
223001,Austin Presbyterian Theological Seminary,48,2,100 E 27th St,Austin,TX,78705-5711,30.292581,-97.737718,100,E 27th St,,,Austin,TX,Travis County,78705
219851,Austin's Beauty College Inc,47,9,585A South Riverside Drive,Clarksville,TN,37040-1121,36.5214,-87.362884,585,S Riverside Dr,,,Clarksville,TN,Montgomery County,37040
211006,Automotive Training Center-Exton,42,6,114 Pickering Way,Exton,PA,19341-1310,40.058247,-75.642961,114,Pickering Way,,,Exton,PA,Chester County,19341
448770,Automotive Training Center-Warminster,42,6,900 Johnsville Blvd,Warminster,PA,18974,40.200607,-75.075298,900,Johnsville Blvd,,,Warminster,PA,Bucks County,18974
365213,Autry Technology Center,40,4,1201 W Willow,Enid,OK,73703-2506,36.418831,-97.897328,1201,W Willow Rd,,,Enid,OK,Garfield County,73703
372356,Avalon Institute-Aurora,8,9,2231 S Peoria Street,Aurora,CO,80014,39.676261,-104.848684,2231,S Peoria St,,,Aurora,CO,Arapahoe County,80014
497301,Avalon Institute-Las Vegas,32,9,2650 South Decatur Boulevard Suites 1  6  8-10,Las Vegas,NV,89102-0046,36.141948,-115.206885,2650,S Decatur Blvd,,8-10,Las Vegas,NV,Clark County,89102
474924,Avalon Institute-Layton,49,9,1992 W Antelope Drive,Layton,UT,84041,41.089565,-112.003628,1992,W Antelope Dr,,,Layton,UT,Davis County,84041
104568,Avalon Institute-Mesa,4,9,2111 S Alma School Rd Ste 21,Mesa,AZ,85210,33.376436,-111.859398,2111,S Alma School Rd,Ste,21,Mesa,AZ,Maricopa County,85210
474915,Avalon Institute-Phoenix,4,9,410 E Bell Road  Suite G100,Phoenix,AZ,85022,33.6416,-112.068469,410,E Bell Rd,Ste,G100,Phoenix,AZ,Maricopa County,85022
457679,Avalon School of Cosmetology,27,6,1428 N McMillan St,Worthington,MN,56187,43.631798,-95.602472,1428,McMillan St N,,,Worthington,MN,Nobles County,56187
442295,Ave Maria School of Law,12,2,1025 Commons Circle,Naples,FL,34119,26.242121,-81.731327,1025,Commons Cir,,,Naples,FL,Collier County,34119
446048,Ave Maria University,12,2,5050 Ave Maria Blvd,Ave Maria,FL,34142-9505,26.336643,-81.437033,5050,Ave Maria Blvd,,,Immokalee,FL,Collier County,34142
497897,Aveda Arts & Sciences Institute Lafayette-Arlington,51,9,671 North Glebe Road  Suite 1280,Arlington,VA,22203-2137,38.878678,-77.111304,671,N Glebe Rd,Ste,1280,Arlington,VA,Arlington County,22203
173744,Aveda Arts & Sciences Institute Minneapolis,27,9,400 Central Ave SE,Minneapolis,MN,55414,44.987939,-93.253998,400,Central Ave SE,,,Minneapolis,MN,Hennepin County,55414
458131,Aveda Arts & Sciences Institute Seattle,53,9,802 East Pike Street,Seattle,WA,98122,47.614384,-122.321742,802,E Pike St,,,Seattle,WA,King County,98122
159513,Aveda Arts & Sciences Institute-Baton Rouge,22,9,2834 S Sherwood Forest Blvd Ste A,Baton Rouge,LA,70816-2246,30.425671,-91.053655,2834,S Sherwood Forest Blvd,Ste,A,Baton Rouge,LA,East Baton Rouge Parish,70816
160320,Aveda Arts & Sciences Institute-Covington,22,9,1355 Polders Lane,Covington,LA,70433,30.494083,-90.104232,1355,Polders Ln,,,Covington,LA,St. Tammany Parish,70433
159522,Aveda Arts & Sciences Institute-Lafayette,22,9,2922 Johnston St,Lafayette,LA,70503-3246,30.206085,-92.04209,2922,Johnston St,,,Lafayette,LA,Lafayette Parish,70503
448071,Aveda Arts & Sciences Institute-New York,36,9,233 Spring St,New York,NY,10013,40.725673,-74.00461,233,Spring St,,,New York,NY,New York County,10013
455354,Aveda Arts & Sciences Institute-San Antonio,48,9,21003 Encino Commons Ste 121,San Antonio,TX,78259-2792,29.63695,-98.45174,21003,Encino Commons,Ste,121,San Antonio,TX,Bexar County,78259
451468,Aveda Fredric's Institute-Cincinnati,39,9,7664 Voice of America Centre Drive,West Chester,OH,45069,39.355386,-84.361491,7664,Voice of America Centre Dr,,,West Chester,OH,Butler County,45069
457563,Aveda Fredric's Institute-Indianapolis,18,9,2208 East 116th Street,Carmel,IN,46032,39.960012,-86.117679,2208,E 116th St,,,Carmel,IN,Hamilton County,46032
498669,Aveda Institute Montana,30,9,901 24th Street West,Billings,MT,59102-3805,45.778893,-108.576089,901,24th St W,,,Billings,MT,Yellowstone County,59102
487348,Aveda Institute Portland-Vancouver Campus,53,9,6615 North East 4th Plain Boulevard,Vancouver,WA,98661-7264,45.643684,-122.603504,6615,NE-4 Plain Blvd,,,Vancouver,WA,Clark County,98661
499334,Aveda Institute Tucson-Avondale,4,9,775 North 114th Avenue,Avondale,AZ,85323-5001,33.453757,-112.304692,755,N 114th Ave,,,Avondale,AZ,Maricopa County,85323
461652,Aveda Institute-Boise,16,9,10222 W Fairview Ave,Boise,ID,83704-4406,43.620375,-116.31059,10222,W Fairview Ave,,,Boise,ID,Ada County,83704
455141,Aveda Institute-Chapel Hill,37,9,201 S. Estes Drive  Space 200 B,Chapel Hill,NC,27514-7001,35.927756,-79.02703,201,S Estes Dr,Ste,200B,Chapel Hill,NC,Orange County,27514
455877,Aveda Institute-Chicago,17,9,2828 N Clark St,Chicago,IL,60657,41.933609,-87.646427,2828,N Clark St,,,Chicago,IL,Cook County,60657
455275,Aveda Institute-Columbus,39,9,889 Bethel Road,Columbus,OH,43214,40.062673,-83.042753,889,Bethel Rd,,,Columbus,OH,Franklin County,43214
459277,Aveda Institute-Denver,8,9,801 Kalamath,Denver,CO,80204,39.729231,-105.00059,801,N Kalamath St,,,Denver,CO,Denver County,80204
475015,Aveda Institute-Des Moines,19,6,6905 Mills Civic Pkwy Suite 120,West Des Moines,IA,50266,41.562783,-93.802876,6905,Mills Civic Pkwy,Ste,120,West Des Moines,IA,Dallas County,50266
362700,Aveda Institute-Fort Myers,12,9,2040 Colonial Blvd,Fort Myers,FL,33907,26.596674,-81.871038,2040,Colonial Blvd,,,Fort Myers,FL,Lee County,33907
487506,Aveda Institute-Madison,55,9,353 East Campus Mall,Madison,WI,53715-0000,43.072615,-89.398082,365,E Campus Mall,,,Madison,WI,Dane County,53715
162830,Aveda Institute-Maryland,24,9,227 Archer St,Bel Air,MD,21014-3639,39.531908,-76.350045,227,Archer St,,,Bel Air,MD,Harford County,21014
461555,Aveda Institute-New Mexico,35,9,1816 Central Ave SW,Albuquerque,NM,87104-1160,35.091769,-106.667736,1816,Central Ave SW,,,Albuquerque,NM,Bernalillo County,87104
484899,Aveda Institute-Phoenix,4,9,8475 S Emerald Drive,Tempe,AZ,85284,33.33904,-111.968226,8475,S Emerald Dr,,,Tempe,AZ,Maricopa County,85284
460862,Aveda Institute-Portland,41,6,325 Northwest 13th Avenue,Portland,OR,97209-3144,45.5248,-122.684396,325,NW 13th Ave,,,Portland,OR,Multnomah County,97209
451574,Aveda Institute-Provo,49,9,210 N. University Avenue,Provo,UT,84601,40.236597,-111.658422,210,N University Ave,,,Provo,UT,Utah County,84601
451149,Aveda Institute-South Florida,12,9,4186 S. University Drive,Davie,FL,33328,26.070313,-80.252007,4186,S University Dr,,,Davie,FL,Broward County,33328
451158,Aveda Institute-Tallahassee,12,9,2020 W. Pensacola St.,Tallahassee,FL,32304,30.441852,-84.319027,2020,W Pensacola St,,,Tallahassee,FL,Leon County,32304
476753,Aveda Institute-Tucson,4,9,145 S 6th Avenue,Tucson,AZ,85701,32.220143,-110.968177,145,S 6th Ave,,,Tucson,AZ,Pima County,85701
142407,Aveda Institute-Twin Falls,16,9,837 Pole Line Road Suite 103,Twin Falls,ID,83301,42.593697,-114.46174,837,Pole Line Rd,Ste,103,Twin Falls,ID,Twin Falls County,83301
491826,Avenue Academy  A Cosmetology Institute,35,9,1512 Eubank Boulevard,Albuquerque,NM,87112-3449,35.096623,-106.531899,1512,Eubank Blvd NE,,,Albuquerque,NM,Bernalillo County,87112
458070,Avenue Five Institute,48,9,8620 Burnet Rd Ste 300,Austin,TX,78757,30.368661,-97.727957,8620,Burnet Rd,Ste,300,Austin,TX,Travis County,78757
494524,Avenue Five Institute-South Austin Campus,48,9,500 E Ben White Boulevard Bld E Ste 100,Austin,TX,78704-3259,30.22194,-97.763619,500,E Ben White Blvd,Ste,100,Austin,TX,Travis County,78704
231420,Averett University,51,2,420 W Main St,Danville,VA,24541,36.577333,-79.413076,420,W Main St,,,Danville,VA,Danville City,24541
158778,Avery James College,22,9,2948 Ryan Street,Lake Charles,LA,70601,30.202891,-93.218807,2948,Ryan St,,,Lake Charles,LA,Calcasieu Parish,70601
448257,Avi Career Training,51,9,10130-a Colvin Run Rd,Great Falls,VA,22066,38.974315,-77.296853,10130 A,Colvin Run Rd,,,Great Falls,VA,Fairfax County,22066
440059,Aviation Institute of Maintenance-Atlanta,13,6,2025 Satellite Pointe,Duluth,GA,30096,33.949289,-84.149098,2025,Satellite Pointe,,,Duluth,GA,Gwinnett County,30096
494764,Aviation Institute of Maintenance-Charlotte,37,6,7421 E. Independence Boulevard,Charlotte,NC,28227-9403,35.16172,-80.736377,7421,E Independence Blvd,,,Charlotte,NC,Mecklenburg County,28227
497745,Aviation Institute of Maintenance-Chicago,17,6,3711 South Ashland Avenue,Chicago,IL,60609-2130,41.826483,-87.664385,3711,S Ashland Ave,,,Chicago,IL,Cook County,60609
441788,Aviation Institute of Maintenance-Dallas,48,6,400 E. Airport Freeway,Irving,TX,75061,32.835371,-96.941763,400,E Airport Fwy,,,Irving,TX,Dallas County,75062
486558,Aviation Institute of Maintenance-Fremont,6,6,420 Whitney Place,Fremont,CA,94539,37.468505,-121.921234,420,Whitney Pl,,,Fremont,CA,Alameda County,94539
227748,Aviation Institute of Maintenance-Houston,48,6,7651 Airport Blvd.,Houston,TX,77061,29.658483,-95.282637,7651,Airport Blvd,,,Houston,TX,Harris County,77061
438735,Aviation Institute of Maintenance-Indianapolis,18,6,7251 W. McCarty St.,Indianapolis,IN,46241,39.753027,-86.28825,7251,W McCarty St,,,Indianapolis,IN,Marion County,46241
441496,Aviation Institute of Maintenance-Kansas City,29,6,4100 Raytown Road,Kansas City,MO,64129,39.049725,-94.498025,4100,Raytown Rd,,,Kansas City,MO,Jackson County,64129
482255,Aviation Institute of Maintenance-Las Vegas,32,6,5870 S. Eastern Ave.,Las Vegas,NV,89119,36.08307,-115.117637,5870,S Eastern Ave,,,Las Vegas,NV,Clark County,89119
445762,Aviation Institute of Maintenance-Manassas,51,6,10640 Davidson Place,Manassas,VA,20109,38.794367,-77.514773,10640,Davidson Pl,,,Manassas,VA,Prince William County,20109
427973,Aviation Institute of Maintenance-Norfolk,51,6,2329 E. Little Creek Road,Norfolk,VA,23518,36.914302,-76.217535,2329,E Little Creek Rd,,,Norfolk,VA,Norfolk City,23518
457411,Aviation Institute of Maintenance-Orlando,12,6,2725 South US Highway 17/92,Casselberry,FL,32707,28.680643,-81.334163,2725,S US-17-92,,,Casselberry,FL,Seminole County,32707
250285,Aviation Institute of Maintenance-Philadelphia,42,6,3001 Grant Avenue,Philadelphia,PA,19114-1018,40.072221,-75.013125,3001,Grant Ave,,,Philadelphia,PA,Philadelphia County,19114
499662,Aviation Institute of Maintenance-Phoenix,4,6,4025 South 32nd Street,Phoenix,AZ,85040-8605,33.409446,-112.010171,4025,S 32nd St,,,Phoenix,AZ,Maricopa County,85040
187000,Aviation Institute of Maintenance-Teterboro,34,6,459 State Route 17,Hasbrouck Heights,NJ,7604,40.864842,-74.06537,459,NJ-17 S,,,Hasbrouck Heights,NJ,Bergen County,7604
447847,Aviator College of Aeronautical Science and Technology,12,3,3800 St Lucie Blvd,Fort Pierce,FL,34946,27.484848,-80.362992,3800,St Lucie Blvd,,,Fort Pierce,FL,St. Lucie County,34946
176628,Avila University,29,2,11901 Wornall Rd,Kansas City,MO,64145-1698,38.912185,-94.591417,11901,Wornall Rd,,,Kansas City,MO,Jackson County,64145
161800,Award Beauty School,24,9,26 E Antietam St,Hagerstown,MD,21740-5610,39.640505,-77.720247,26,E Antietam St,,,Hagerstown,MD,Washington County,21740
158246,Ayers Career College,22,9,8820 Jewella Ave,Shreveport,LA,71118,32.419629,-93.797608,8820,Jewella Ave,,,Shreveport,LA,Caddo Parish,71108
109785,Azusa Pacific University,6,2,901 E Alosta,Azusa,CA,91702-7000,34.128038,-117.888633,900,E Alosta Ave,,,Azusa,CA,Los Angeles County,91702
237145,B M Spurr School of Practical Nursing,54,8,800 Wheeling Ave,Glen Dale,WV,26038,39.946079,-80.752467,800,Wheeling Ave,,,Glen Dale,WV,Marshall County,26038
164580,Babson College,25,2,231 Forest Street,Wellesley,MA,02457-0310,42.299017,-71.262336,231,Forest St,,,Wellesley Hills,MA,Norfolk County,2481
128586,Bais Binyomin Academy,36,2,51 Carlton Road,Monsey,NY,10952,41.123104,-74.07893,51,Carlton Rd,,,Monsey,NY,Rockland County,10952
476601,Bais HaMedrash and Mesivta of Baltimore,24,2,6823 Old Pimlico Road,Baltimore,MD,21209-1613,39.37947,-76.674373,6823,Old Pimlico Rd,,,Baltimore,MD,Baltimore County,21209
245777,Bais Medrash Elyon,36,2,73 Main Street,Monsey,NY,10952,41.114122,-74.069826,73,Main St,,,Monsey,NY,Rockland County,10952
490513,Bais Medrash Mayan Hatorah,34,2,101 Milton Street,Lakewood,NJ,8701,40.1074,-74.204339,101,Milton St,,,Lakewood,NJ,Ocean County,8701
495031,Bais Medrash of Dexter Park,36,2,445 South Pascack Road,Chestnut Ridge,NY,10977,41.081349,-74.045834,445,S Pascack Rd,,,Spring Valley,NY,Rockland County,10977
449658,Bais Medrash Toras Chesed,34,2,901 Monmouth Ave,Lakewood,NJ,8701,40.099741,-74.211123,901,Monmouth Ave,,,Lakewood,NJ,Ocean County,8701
168847,Baker College,26,2,1020 S Washington St,Owosso,MI,48867,42.986867,-84.170629,1020,S Washington St,,,Owosso,MI,Shiawassee County,48867
154688,Baker University,20,2,615 Dearborn Street,Baldwin City,KS,66006-0065,38.778699,-95.187139,615,Dearborn St,,,Baldwin City,KS,Douglas County,66006
109819,Bakersfield College,6,1,1801 Panorama Dr,Bakersfield,CA,93305-1299,35.408263,-118.972043,1801,Panorama Dr,,,Bakersfield,CA,Kern County,93305
420705,Bakke Graduate University,48,2,8515 Greenville Ave  Suite S206,Dallas,TX,75243-7039,32.894455,-96.753976,8515,Greenville Ave,Ste,S206,Dallas,TX,Dallas County,75243
414489,Baldwin Beauty School-North Austin,48,9,8440 Burnet Rd.  Ste 140,Austin,TX,78757-7068,30.366583,-97.728709,8440,Burnet Rd,Ste,140,Austin,TX,Travis County,78757
223056,Baldwin Beauty School-South Austin,48,9,3005 S Lamar,Austin,TX,78704-4785,30.241345,-97.783737,3005,S Lamar Blvd,,,Austin,TX,Travis County,78704
417105,Baldwin Park Adult & Community Education,6,7,4640 N. Maine Ave,Baldwin Park,CA,91706-4221,34.096721,-117.959361,4640,Maine Ave,,,Baldwin Park,CA,Los Angeles County,91706
201195,Baldwin Wallace University,39,2,275 Eastland Rd,Berea,OH,44017-2088,41.368392,-81.844649,275,Eastland Rd,,,Berea,OH,Cuyahoga County,44017
150136,Ball State University,18,1,2000 W. University Ave,Muncie,IN,47306,40.198888,-85.408222,2000,W University Ave,,,Muncie,IN,Delaware County,47306
499255,Baltimore Beauty & Barber School II,24,9,29 Greenmeadow Drive,Timonium,MD,21093-3208,39.444836,-76.624844,29,Greenmeadow Dr,,,Lutherville Timonium,MD,Baltimore County,21093
161864,Baltimore City Community College,24,4,2901 Liberty Heights Avenue,Baltimore,MD,21215-7893,39.320849,-76.662688,2901,Liberty Heights Ave,,,Baltimore,MD,Baltimore City,21215
161855,Baltimore Studio of Hair Design,24,9,318 N Howard St,Baltimore,MD,21201-3444,39.293412,-76.619914,318,N Howard St,,,Baltimore,MD,Baltimore City,21201
164599,Bancroft School of Massage Therapy,25,9,333 Shrewsbury St,Worcester,MA,1604,42.268702,-71.777948,333,Shrewsbury St,,,Worcester,MA,Worcester County,1604
189015,Bank Street College of Education,36,2,610 W 112 St,New York,NY,10025,40.805687,-73.966578,610,W 112th St,,,New York,NY,New York County,10025
106546,Baptist Health College Little Rock,5,5,11900 COLONEL GLENN RD STE 1000,Little Rock,AR,72210-2827,34.713087,-92.407021,11900,Colonel Glenn Rd,Ste,1000,Little Rock,AR,Pulaski County,72210
219639,Baptist Health Sciences University,47,2,1003 Monroe Ave,Memphis,TN,38104,35.138737,-90.027254,1003,Monroe Ave,,,Memphis,TN,Shelby County,38104
223083,Baptist Health System School of Health Professions,48,3,8400 Datapoint Dr,San Antonio,TX,78229,29.517219,-98.567666,8400,Datapoint Dr,,,San Antonio,TX,Bexar County,78229
223117,Baptist Missionary Association Theological Seminary,48,2,1530 E Pine St,Jacksonville,TX,75766-5407,31.978723,-95.255802,1530,E Pine St,,,Jacksonville,TX,Cherokee County,75766
132408,Baptist University of Florida,12,2,5400 College Dr,Graceville,FL,32440,30.96084,-85.50567,5400,College Dr,,,Graceville,FL,Jackson County,32440
444398,Baptist University of the Americas,48,2,2418 W. Ansley Blvd.,San Antonio,TX,78224-1443,29.34265,-98.541497,2418,W Ansley Blvd,,,San Antonio,TX,Bexar County,78224
476610,Barber & Beauty Institute of New York,36,9,266 Greenwich Street,Hempstead,NY,11550-6317,40.699784,-73.615324,266,Greenwich St,,,Hempstead,NY,Nassau County,11550
483346,Barber and Beauty Academy of Pennsylvania,42,9,3849-C Union Deposit Road,Harrisburg,PA,17109,40.278179,-76.825686,3849,Union Deposit Rd,,,Harrisburg,PA,Dauphin County,17109
497356,Barber Education Academy,48,9,1505 Calle Del Norte Suite 230,Laredo,TX,78041-6039,27.555765,-99.480912,1505,Calle Del Norte,Ste,230,Laredo,TX,Webb County,78041
484048,Barber Institute of Texas,48,9,2430 South High Street Ste B4,Longview,TX,75602-3456,32.462946,-94.732501,2430,S High St,Ste,B4,Longview,TX,Gregg County,75602
483054,Barber School of Pittsburgh,42,9,1201 Banksville Road,Pittsburgh,PA,15216,40.418335,-80.029457,1201,Banksville Rd,,,Pittsburgh,PA,Allegheny County,15216
488022,Barber Tech Academy,45,9,1650 Russell Street,Orangeburg,SC,29115-6069,33.492433,-80.856999,1650,Russell St,,,Orangeburg,SC,Orangeburg County,29115
499723,Barber Tech Academy-Columbia,45,9,421 Bush River Road Unit 98,Columbia,SC,29210-0000,34.030357,-81.096136,421,Bush River Rd,Unit,98,Columbia,SC,Richland County,29210
497383,Barbers Trade School,48,9,665 Orleans Street,Beaumont,TX,77701-3308,30.081445,-94.097864,665,Orleans St,,,Beaumont,TX,Jefferson County,77701
155070,Barclay College,20,2,607 N Kingman,Haviland,KS,67059-0288,37.620467,-99.104846,607,N Kingman St,,,Haviland,KS,Kiowa County,67059
189088,Bard College,36,2,Annandale Road,Annandale-On-Hudson,NY,12504-5000,42.024377,-73.906993,,Annandale Rd,,,Annandale On Hudson,NY,Dutchess County,12504
167792,Bard College at Simon's Rock,25,2,84 Alford Road,Great Barrington,MA,01230-9702,42.202886,-73.378955,84,Alford Rd,,,Great Barrington,MA,Berkshire County,1230
189097,Barnard College,36,2,3009 Broadway,New York,NY,10027-6598,40.80904,-73.963773,3009,Broadway,,,New York,NY,New York County,10027
177719,Barnes-Jewish College Goldfarb School of Nursing,29,2,4483 Duncan Avenue  Mailstop 90-36-697,Saint Louis,MO,63110,38.637116,-90.259394,4483,Duncan Ave,,697,Saint Louis,MO,St. Louis City,63110
132471,Barry University,12,2,11300 NE 2nd Ave,Miami,FL,33161-6695,25.87915,-80.196323,11300,NE 2nd Ave,,,Miami,FL,Miami-Dade County,33161
109907,Barstow Community College,6,4,2700 Barstow Road,Barstow,CA,92311,34.871477,-117.020313,2701,Barstow Rd,,,Barstow,CA,San Bernardino County,92311
197911,Barton College,37,2,200 E. ACC Drive,Wilson,NC,27893-7000,35.540672,-77.969673,200,S Aycock St,,,Fremont,NC,Wayne County,27830
154697,Barton County Community College,20,4,245 NE 30th Road,Great Bend,KS,67530,38.401634,-98.733135,245,NE 30th Rd,,,Great Bend,KS,Barton County,67530
235547,Bastyr University,53,2,14500 Juanita Drive NE,Kenmore,WA,98028-4966,47.7302,-122.251363,14500,Juanita Dr NE,,,Kenmore,WA,King County,98028
160977,Bates College,23,2,2 Andrews Road,Lewiston,ME,4240,44.107304,-70.205213,2,Andrews Rd,,,Lewiston,ME,Androscoggin County,4240
235671,Bates Technical College,53,4,1101 S Yakima Ave,Tacoma,WA,98405,47.252605,-122.447379,1101,S Yakima Ave,,,Tacoma,WA,Pierce County,98405
437103,Baton Rouge Community College,22,4,201 Community College Drive,Baton Rouge,LA,70806,30.448778,-91.135665,201,Community College Dr,,,Baton Rouge,LA,East Baton Rouge Parish,70806
158325,Baton Rouge General Medical Center School of Nursing & School of Radiologic Technology,22,5,3616 North Blvd,Baton Rouge,LA,70806,30.448008,-91.152516,3616,North Blvd,,,Baton Rouge,LA,East Baton Rouge Parish,70806
483878,Bay Area Medical Academy,6,9,530 Bush Street #201,San Francisco,CA,94108-3623,37.79062,-122.406075,530,Bush St,Ste,201,San Francisco,CA,San Francisco County,94108
168883,Bay de Noc Community College,26,4,2001 N Lincoln Road,Escanaba,MI,49829-2511,45.770176,-87.080766,2001,N Lincoln Rd,,,Escanaba,MI,Delta County,49829
380359,Bay Mills Community College,26,1,12214 W Lakeshore Dr,Brimley,MI,49715,46.481898,-84.650962,,Lake Shore Dr,,,Brimley,MI,Chippewa County,49715
164632,Bay Path University,25,2,588 Longmeadow Street,Longmeadow,MA,1106,42.055141,-72.583366,588,Longmeadow St,,,Longmeadow,MA,Hampden County,1106
223223,Baylor College of Medicine,48,2,One Baylor Plaza,Houston,TX,77030-3498,29.71072,-95.395775,1,Baylor Plz,,,Houston,TX,Harris County,77030
223232,Baylor University,48,2, ,Waco,TX,76798,31.548378,-97.119061,,,,,Waco,TX,McLennan County,76798
168892,Bayshire Academy of Beauty Craft Inc,26,9,917 Saginaw St,Bay City,MI,48708-5614,43.599358,-83.888907,917,Saginaw St,,,Bay City,MI,Bay County,48708
476717,Be'er Yaakov Talmudic Seminary,36,2,12 Truman Avenue,Spring Valley,NY,10977,41.138333,-74.029497,12,Truman Ave,,,Spring Valley,NY,Rockland County,10977
384254,Beacon College,12,2,105 E Main St,Leesburg,FL,34748,28.810857,-81.874746,105,E Main St,,,Leesburg,FL,Lake County,34748
160995,Beal University,23,3,99 Farm Road,Bangor,ME,4401,44.786392,-68.785539,99,Farm Rd,,,Bangor,ME,Penobscot County,4401
485166,Beau Monde Academy of Barbering and Cosmetology,41,9,2201 Lloyd Center Suite C304,Portland,OR,97232-1315,45.532591,-122.653516,2201,Lloyd Ctr,Ste,C304,Portland,OR,Multnomah County,97232
197966,Beaufort County Community College,37,4,5337 US Highway 264 East,Washington,NC,27889,35.533541,-76.965349,5337,US-264 Hwy E,,,Washington,NC,Beaufort County,27889
449357,Beaumont Adult School,6,7,1575 Cherry Ave,Beaumont,CA,92223,33.952782,-116.965488,1591,Cherry Ave,,,Beaumont,CA,Riverside County,92223
460969,Beauty Academy of South Florida,12,9,9800 NW 77 Avenue,Hialeah Gardens,FL,33016-2421,25.862904,-80.323583,9800,NW 77th Ave,,,Hialeah Gardens,FL,Miami-Dade County,33016
498775,Beaver Beauty Academy,13,9,1999 Candler Road,Decatur,GA,30032-4281,33.732529,-84.284485,1999,Candler Rd,,,Decatur,GA,Dekalb County,30032
247065,Beckfield College-Florence,21,3,16 Spiral Drive,Florence,KY,41042,39.017186,-84.641322,16,Spiral Dr,,,Florence,KY,Boone County,41042
444413,Beis Medrash Heichal Dovid,36,2,211 Beach Seventeenth Street,Far Rockaway,NY,11691-4433,40.598196,-73.764648,,Far Rockaway Blvd,,,Far Rockaway,NY,Queens County,11691
126359,Bel-Rea Institute of Animal Technology,8,6,1681 S Dayton St,Denver,CO,80247,39.685954,-104.876146,1681,S Dayton St,,,Denver,CO,Arapahoe County,80247
190956,Belanger School of Nursing,36,5,650 McClellan St,Schenectady,NY,12304,42.803061,-73.915748,650,McClellan St,,,Schenectady,NY,Schenectady County,12304
159027,Belbo Beauty Institute,22,9,1141 Shreveport Barksdale Highway,Shreveport,LA,71105,32.485749,-93.708125,1141,Shreveport Barksdale Hwy,,,Shreveport,LA,Caddo Parish,71105
175421,Belhaven University,28,2,1500 Peachtree St,Jackson,MS,39202,32.31852,-90.167084,1500,Peachtree St,,,Jackson,MS,Hinds County,39202
364760,Bell Mar Beauty College,17,9,5717  W. Cermak Road,Cicero,IL,60804,41.850666,-87.76727,5717,W Cermak Rd,,,Cicero,IL,Cook County,60804
461193,Bella Capelli Academy,42,9,151 Wyngate Drive,Monroeville,PA,15146-2388,40.432511,-79.78155,151,Wyngate Dr,,,Monroeville,PA,Allegheny County,15146
483559,Bella Cosmetology and Barber College,48,9,5015A Wesley,Greenville,TX,75402,33.119749,-96.10782,5015,Wesley St,,,Greenville,TX,Hunt County,75402
156286,Bellarmine University,21,2,2001 Newburg Rd,Louisville,KY,40205-0671,38.217604,-85.707731,2001,Newburg Rd,,,Louisville,KY,Jefferson County,40205
493567,Bellasa Professional Institute,12,9,700 South Royal Poinciana Blvd suite 103 and 303,Miami Springs,FL,33166-0000,25.810659,-80.26699,700,S Royal Poinciana Blvd,Ste,103,Miami Springs,FL,Miami-Dade County,33166
481571,Belle Academy of Cosmetology LLC,9,9,27A South Commons Road,Waterbury,CT,06704-1035,41.596993,-73.055099,27,S Commons Rd,,,Waterbury,CT,Naugatuck Valley Planning Region,6704
234669,Bellevue College,53,1,3000 Landerholm Cir SE,Bellevue,WA,98007-6484,47.586775,-122.150554,3000,Landerholm Cir SE,,,Bellevue,WA,King County,98007
180814,Bellevue University,31,2,1000 Galvin Rd S,Bellevue,NE,68005-3098,41.15008,-95.918392,1000,Galvin Rd S,,,Bellevue,NE,Sarpy County,68005
238324,Bellin College,55,2,3201 Eaton Road,Green Bay,WI,54311,44.468213,-87.921526,3201,Eaton Rd,,,Green Bay,WI,Brown County,54311
234696,Bellingham Technical College,53,1,3028 Lindbergh Ave,Bellingham,WA,98225-1599,48.765686,-122.512847,3028,Lindbergh Ave,,,Bellingham,WA,Whatcom County,98225
478953,Bellus Academy,20,9,1130 Westloop Place,Manhattan,KS,66502-2838,39.191703,-96.608436,1130,Westloop Pl,,,Manhattan,KS,Riley County,66502
109934,Bellus Academy-Chula Vista,6,6,970 Broadway  Suite 110,Chula Vista,CA,91911,32.614723,-117.083767,970,Broadway,Ste,110,Chula Vista,CA,San Diego County,91911
116563,Bellus Academy-El Cajon,6,6,1073 E Main St,El Cajon,CA,92021,32.794766,-116.945854,1073,E Main St,,,El Cajon,CA,San Diego County,92021
377722,Bellus Academy-Poway,6,6,13266 Poway Rd,Poway,CA,92064,32.956615,-117.043088,13266,Poway Rd,,,Poway,CA,San Diego County,92064
197984,Belmont Abbey College,37,2,100 Belmont-Mt Holly Road,Belmont,NC,28012-1802,35.26081,-81.036474,100,Belmont Mt Holly Rd,,,Belmont,NC,Gaston County,28012
201283,Belmont College,39,4,68094 Hammond Road,St Clairsville,OH,43950,40.076741,-80.965406,68094,Hammond Rd,,,Saint Clairsville,OH,Belmont County,43950
219709,Belmont University,47,2,1900 Belmont Blvd,Nashville,TN,37212-3757,36.133996,-86.793896,1900,Belmont Blvd,,,Nashville,TN,Davidson County,37212
238333,Beloit College,55,2,700 College St,Beloit,WI,53511-5595,42.503042,-89.03093,700,College St,,,Beloit,WI,Rock County,53511
173124,Bemidji State University,27,1,1500 Birchmont Dr NE,Bemidji,MN,56601,47.482753,-94.875655,1500,Birchmont Dr NE,,,Bemidji,MN,Beltrami County,56601
237172,Ben Franklin Career Center,54,7,500 28th St,Dunbar,WV,25064,38.367558,-81.753471,500,28th St,,,Dunbar,WV,Kanawha County,25064
137591,Bene's Career Academy,12,9,7027 US Highway 19,New Port Richey,FL,34652,28.259501,-82.728469,7027,US-19,,,New Port Richey,FL,Pasco County,34652
217721,Benedict College,45,2,1600 Harden Street,Columbia,SC,29204-1086,34.012276,-81.022014,1600,Harden St,,,Columbia,SC,Richland County,29204
154712,Benedictine College,20,2,1020 N 2nd St,Atchison,KS,66002-1499,39.575384,-95.109725,1020,N 2nd St,,,Atchison,KS,Atchison County,66002
145619,Benedictine University,17,2,5700 College Rd,Lisle,IL,60532-0900,41.777507,-88.093998,5700,College Rd,,,Lisle,IL,Dupage County,60532
165884,Benjamin Franklin Cummings Institute of Technology,25,2,41 Berkeley St,Boston,MA,2116,42.346085,-71.070199,41,Berkeley St,,,Boston,MA,Suffolk County,2116
439473,Bennett Career Institute,11,9,700 Monroe Street N.E.,Washington,DC,20017,38.932626,-76.995877,700,Monroe St NE,,,Washington,DC,District of Columbia,20017
197993,Bennett College,37,2,900 E Washington St,Greensboro,NC,27401-3239,36.069132,-79.780587,900,E Washington St,,,Greensboro,NC,Guilford County,27401
230816,Bennington College,50,2,One College Drive,Bennington,VT,05201-6003,42.879742,-73.187372,99,Coolidge Ave,,,Bennington,VT,Bennington County,5201
164739,Bentley University,25,2,175 Forest St,Waltham,MA,02452-4705,42.387273,-71.219711,175,Forest St,,,Waltham,MA,Middlesex County,2452
156295,Berea College,21,2,101 Chestnut Street,Berea,KY,40404-2182,37.572332,-84.289915,101,Chestnut St,,,Berea,KY,Madison County,40403
183743,Bergen Community College,34,4,400 Paramus Rd,Paramus,NJ,07652-1595,40.952081,-74.09024,400,Paramus Rd,,,Paramus,NJ,Bergen County,7652
189219,Berk Trade and Business School,36,9,33-09 Queens Boulevard,Long Island City,NY,11101-8120,40.744894,-73.931095,33-9,Queens Blvd,,,Long Island City,NY,Queens County,11101
125170,Berkeley City College,6,4,2050 Center Sreet,Berkeley,CA,94704,37.866975,-122.256729,,,,,Berkeley,CA,Alameda County,94704
189228,Berkeley College-New York,36,3,3 East 43 Street,New York,NY,10017,40.753893,-73.979509,3,E 43rd St,,,New York,NY,New York County,10017
183789,Berkeley College-Woodland Park,34,3,44 Rifle Camp Rd,Woodland Park,NJ,7424,40.900182,-74.186867,44,Rifle Camp Rd,,,Woodland Park,NJ,Passaic County,7424
108861,Berkeley School of Theology,6,2,2606 Dwight Way,Berkeley,CA,94704-3029,37.864905,-122.255822,2606,Dwight Way,,,Berkeley,CA,Alameda County,94704
164748,Berklee College of Music,25,2,1140 Boylston St,Boston,MA,2215,42.346599,-71.089503,1140,Boylston St,,,Boston,MA,Suffolk County,2215
189255,Berkowits School of Electrolysis,36,9,107-25 Metropolitan Avenue,Forest Hills,NY,11375-6820,40.709705,-73.845227,107-25,Metropolitan Ave,,,Forest Hills,NY,Queens County,11375
481021,Berks Career & Technology Center,42,7,1057 County Road,Leesport,PA,19533-9112,40.383462,-76.021237,,County Rd,,,Leesport,PA,Berks County,19533
164775,Berkshire Community College,25,4,1350 West Street,Pittsfield,MA,01201-5786,42.459853,-73.315297,1350,West St,,,Pittsfield,MA,Berkshire County,1201
139144,Berry College,13,2,2277 Martha Berry Hwy NW,Mount Berry,GA,30149,34.289949,-85.181082,2277,Martha Berry Hwy,,,Rome,GA,Floyd County,30165
461865,Best Care College,34,6,68 South Harrison,East Orange,NJ,07018-1703,40.765306,-74.221085,68,S Harrison St,,,East Orange,NJ,Essex County,7018
485999,Bet Medrash Gadol Ateret Torah,36,2,1750 East Fourth Street,Brooklyn,NY,11223-1933,40.607673,-73.969864,1750,E 4th St,,,Brooklyn,NY,Kings County,11223
189273,Beth Hamedrash Shaarei Yosher Institute,36,2,4102 16th Ave,Brooklyn,NY,11204,40.635496,-73.981077,4102,16th Ave,,,Brooklyn,NY,Kings County,11204
183804,Beth Medrash Govoha,34,2,617 6th St,Lakewood,NJ,08701-2754,40.095715,-74.22189,617,6th St,,,Lakewood,NJ,Ocean County,8701
486196,Beth Medrash Meor Yitzchok,36,2,85 Dykstras Way East,Monsey,NY,10952-4023,41.100927,-74.060827,85,Dykstras Way E,,,Monsey,NY,Rockland County,10952
488314,Beth Medrash of Asbury Park,34,2,1500 Vermont Avenue,Lakewood,NJ,08701-5842,40.043606,-74.210813,1500,Vermont Ave,,,Lakewood,NJ,Ocean County,8701
154721,Bethany College,20,2,335 E Swensson St,Lindsborg,KS,67456-1897,38.580475,-97.671885,335,E Swensson St,,,Lindsborg,KS,McPherson County,67456
237181,Bethany College,54,2,31 E Campus Dr,Bethany,WV,26032,40.204781,-80.561816,31,E Campus Dr,,,Bethany,WV,Brooke County,26032
486284,Bethany Global University,27,2,6820 Auto Club Road,Bloomington,MN,55438-2849,44.795506,-93.37184,6820,Auto Club Rd,,,Minneapolis,MN,Hennepin County,55438
173142,Bethany Lutheran College,27,2,700 Luther Dr,Mankato,MN,56001,44.166126,-93.990871,700,Luther Dr,,,Mankato,MN,Blue Earth County,56001
143233,Bethany Theological Seminary,18,2,615 National Rd W,Richmond,IN,47374-4019,39.826168,-84.910715,615,W National Rd,,,Richmond,IN,Wayne County,47374
154749,Bethel College-North Newton,20,2,300 E 27th St,North Newton,KS,67117-1716,38.074754,-97.342494,300,E 27th St,,,North Newton,KS,Harvey County,67117
150145,Bethel University,18,2,1001 Bethel Circle,Mishawaka,IN,46545-5591,41.677782,-86.194707,1001,Bethel Cir,,,Mishawaka,IN,St. Joseph County,46545
173160,Bethel University,27,2,3900 Bethel Dr,Saint Paul,MN,55112,45.057644,-93.162244,3900,Bethel Dr,,,Saint Paul,MN,Ramsey County,55112
219718,Bethel University,47,2,325 Cherry Ave,McKenzie,TN,38201,36.136811,-88.516839,325,Cherry Ave,,,Mc Kenzie,TN,Carroll County,38201
110060,Bethesda University,6,2,730 N. Euclid St,Anaheim,CA,92801,33.842295,-117.941325,730,N Euclid St,,,Anaheim,CA,Orange County,92801
132602,Bethune-Cookman University,12,2,640 Dr Mary McLeod Bethune Blvd,Daytona Beach,FL,32114-3099,29.212133,-81.032363,640,Dr Mary Mcleod Bethune Blvd,,,Daytona Beach,FL,Volusia County,32114
139153,Beulah Heights University,13,2,892 Berne St SE,Atlanta,GA,30316,33.737039,-84.357963,892,Berne St SE,,,Atlanta,GA,Fulton County,30316
102429,Bevill State Community College,1,4,1411 Indiana Avenue,Jasper,AL,35501,33.837355,-87.264872,1411,Indiana Ave,,,Jasper,AL,Walker County,35501
443702,Bexley Hall Seabury Western Theological Seminary Federation  Inc.,17,2,1407 East 60th Street,Chicago,IL,60637,41.785947,-87.591221,1407,E 60th St,,,Chicago,IL,Cook County,60637
457253,Beyond 21st Century Beauty Academy,6,9,13640 Imperial Hwy Ste 6-8,Santa Fe Springs,CA,90670,33.91681,-118.042244,13640,Imperial Hwy,Ste,8,Santa Fe Springs,CA,Los Angeles County,90670
484020,Beyond Measure Barbering Institute,37,9,Center Street Plaza,Mebane,NC,27302-2323,36.094255,-79.259147,,E Center St,,,Mebane,NC,Orange County,27302
234711,Big Bend Community College,53,1,7662 Chanute St NE,Moses Lake,WA,98837-3299,47.184465,-119.32676,7662,Chanute St NE,,,Moses Lake,WA,Grant County,98837
137856,Big Bend Technical College,12,7,3233 South Byron Butler Parkway,Perry,FL,32348,30.104643,-83.58878,,S Byron Butler Pkwy,,,Perry,FL,Taylor County,32348
157553,Big Sandy Community and Technical College,21,4,1 Bert Combs Dr,Prestonsburg,KY,41653,37.687047,-82.778499,1,Bert Combs Dr,,,Prestonsburg,KY,Floyd County,41653
196079,Binghamton University,36,1,4400 Vestal Parkway East,Vestal,NY,13850-6000,42.088861,-75.966873,4400,Vestal Pkwy E,,,Binghamton,NY,Broome County,13902
110097,Biola University,6,2,13800 Biola Ave,La Mirada,CA,90639-0001,33.906024,-118.014495,13800,Biola Ave,,,La Mirada,CA,Los Angeles County,90639
100937,Birmingham-Southern College,1,2,900 Arkadelphia Road,Birmingham,AL,35254,33.516821,-86.8539,900,Arkadelphia Rd,,,Birmingham,AL,Jefferson County,35254
102030,Bishop State Community College,1,4,351 North Broad Street,Mobile,AL,36603-5898,30.695061,-88.056453,351,N Broad St,,,Mobile,AL,Mobile County,36603
200022,Bismarck State College,38,1,1500 Edwards Ave.,Bismarck,ND,58506-5587,46.821384,-100.817064,1500,Edwards Ave,,,Bismarck,ND,Burleigh County,58501
236018,BJ's Beauty & Barber College,53,9,5239 S Tacoma Way,Tacoma,WA,98409,47.208342,-122.48329,5239,S Tacoma Way,,,Tacoma,WA,Pierce County,98409
224013,BK Cosmo College of Cosmetology,48,9,320 W. Water Street Suite E,Kerrville,TX,78028-4312,30.055035,-99.150358,320,W Water St N,Ste,E,Kerrville,TX,Kerr County,78028
143279,Black Hawk College,17,4,6600-34th Avenue,Moline,IL,61265-5899,41.477971,-90.449342,6600,34th Ave,,,Moline,IL,Rock Island County,61265
219046,Black Hills State University,46,1,1200 University St,Spearfish,SD,57799-9500,44.49434,-103.870225,1200,University St,,,Spearfish,SD,Lawrence County,57799
106625,Black River Technical College,5,4,1410 Hwy 304 East,Pocahontas,AR,72455,36.239802,-90.951202,1410,Highway 304 E,,,Pocahontas,AR,Randolph County,72455
143288,Blackburn College,17,2,700 College Ave,Carlinville,IL,62626,39.287805,-89.871569,700,N College Ave,,,Carlinville,IL,Macoupin County,62626
180054,Blackfeet Community College,30,2,504 S.E. East Boundary,Browning,MT,59417-0819,48.552571,-113.009324,504,SE Boundary St,,,Browning,MT,Glacier County,59417
238397,Blackhawk Technical College,55,4,6004 South County Road G,Janesville,WI,53547-5009,42.592317,-89.014365,6004,S County Rd G,,,Janesville,WI,Rock County,53546
457615,Blackstone Valley Vocational Regional School District,25,7,65 Pleasant St,Upton,MA,01568-1499,42.163239,-71.616321,65,Pleasant St,,,Upton,MA,Worcester County,1568
198011,Bladen Community College,37,4,7418 NC Hwy 41 West,Dublin,NC,28332,34.644951,-78.728304,7332,NC-41 W,,,Elizabethtown,NC,Bladen County,28337
447810,Blake Austin College,6,9,611 Orange Dr Ste K,Vacaville,CA,95687,38.378593,-121.945562,611,Orange Dr,Ste,K,Vacaville,CA,Solano County,95687
373456,Blalock's Professional Beauty College,22,9,8101 Kingston Rd Ste 103,Shreveport,LA,71108-5745,32.425443,-93.780086,8101,Kingston Rd,Ste,103,Shreveport,LA,Caddo Parish,71108
143297,Blessing Rieman College of Nursing and Health Sciences,17,2,3609 North Marx Drive,Quincy,IL,62305-7005,39.949384,-91.357424,3609,N Marx Dr,,,Quincy,IL,Adams County,62305
223427,Blinn College District,48,4,902 College Ave,Brenham,TX,77833-4098,30.159382,-96.406257,902,College Ave,,,Brenham,TX,Washington County,77833
183822,Bloomfield College,34,2,467 Franklin St,Bloomfield,NJ,7003,40.794627,-74.195914,467,Franklin St,,,Bloomfield,NJ,Essex County,7003
444440,Blue Cliff Career College,1,9,2970 Cottage Hill Rd.  Suite 175,Mobile,AL,36606,30.670256,-88.11515,2970,Cottage Hill Rd,Ste,175,Mobile,AL,Mobile County,36606
450128,Blue Cliff College-Alexandria,22,6,1505 Metro Dr Ste 1,Alexandria,LA,71301,31.276433,-92.478922,1505,Metro Dr,Ste,1,Alexandria,LA,Rapides Parish,71301
441502,Blue Cliff College-Gulfport,28,9,12251 Bernard Pkwy,Gulfport,MS,39503,30.387595,-89.066953,12251,Bernard Pkwy,,,Gulfport,MS,Harrison County,39503
439491,Blue Cliff College-Lafayette,22,6,120 James Comeaux Rd.,Lafayette,LA,70508,30.188116,-92.011145,120,James Comeaux Rd,,,Lafayette,LA,Lafayette Parish,70508
434821,Blue Cliff College-Metairie,22,6,3200 Cleary Ave,Metairie,LA,70002-5714,30.002835,-90.172782,3200,Cleary Ave,,,Metairie,LA,Jefferson Parish,70002
243799,Blue Hills Regional Technical School,25,7,800 Randolph St,Canton,MA,2021,42.183523,-71.103338,800,Randolph St,,,Canton,MA,Norfolk County,2021
175430,Blue Mountain Christian University,28,2,201 W Main St,Blue Mountain,MS,38610,34.67093,-89.028129,201,W Main St,,,Blue Mountain,MS,Tippah County,38610
208275,Blue Mountain Community College,41,4,2411 NW Carden Ave,Pendleton,OR,97801,45.676715,-118.816138,2411,NW Carden Ave,,,Pendleton,OR,Umatilla County,97801
446774,Blue Ridge Community and Technical College,54,4,13650 Apple Harvest Drive,Martinsburg,WV,25403,39.435407,-78.00196,13650,Apple Harvest Dr,,,Martinsburg,WV,Berkeley County,25403
198039,Blue Ridge Community College,37,4,180 West Campus Drive,Flat Rock,NC,28731-4728,35.307457,-82.425514,180,W Campus Dr,,,Flat Rock,NC,Henderson County,28731
231536,Blue Ridge Community College,51,4,One College Lane,Weyers Cave,VA,24486-0080,38.279423,-78.937411,57,College Ln,,,Weyers Cave,VA,Augusta County,24486
237215,Bluefield State University,54,1,219 Rock Street,Bluefield,WV,24701-2198,37.264786,-81.240823,219,Rock St,,,Bluefield,WV,Mercer County,24701
231554,Bluefield University,51,2,3000 College Avenue,Bluefield,VA,24605,37.244594,-81.246173,3000,College Ave,,,Bluefield,VA,Tazewell County,24605
156392,Bluegrass Community and Technical College,21,4,470 Cooper Drive,Lexington,KY,40506,38.024244,-84.502491,470,Cooper Dr,,,Lexington,KY,Fayette County,40503
201371,Bluffton University,39,2,1 University Drive,Bluffton,OH,45817-2104,40.894026,-83.897752,1,University Dr,,,Bluffton,OH,Allen County,45817
491446,Bnos Zion Of Bobov Seminary,36,5,5000 14th Avenue,Brooklyn,NY,11219-3621,40.633038,-73.99081,5000,14th Ave,,,Brooklyn,NY,Kings County,11219
217749,Bob Jones University,45,2,1700 Wade Hampton Boulavard,Greenville,SC,29614-0001,34.877326,-82.36155,1700,Wade Hampton Blvd,,,Greenville,SC,Greenville County,29614
481483,Boca Beauty Academy,12,9,7820 Glades Road suite 175,Boca Raton,FL,33434-4178,26.367184,-80.166849,7820,Glades Rd,Ste,175,Boca Raton,FL,Palm Beach County,33434
489238,Boca Beauty Academy-Parkland,12,9,7271 North State Road 7,Parkland,FL,33073-4526,26.321717,-80.203791,7271,N Sr 7,,,Pompano Beach,FL,Broward County,33073
496690,Body Wisdom Massage Therapy School,19,9,8401 Douglas Avenue  Ste 2,Urbandale,IA,50322-2903,41.629705,-93.733136,8401,Douglas Ave,Ste,2,Urbandale,IA,Polk County,50322
476850,Boise Barber College,16,9,7709 W. Overland Rd. 100,Boise,ID,83709,43.588517,-116.278269,7709,W Overland Rd,Ste,100,Boise,ID,Ada County,83709
142090,Boise Bible College,16,2,8695 W Marigold St,Boise,ID,83714-1220,43.658692,-116.291336,8695,W Marigold St,,,Garden City,ID,Ada County,83714
142115,Boise State University,16,1,1910 University Dr,Boise,ID,83725,43.603727,-116.204779,1910,W University Dr,,,Boise,ID,Ada County,83725
490203,Bolivar Technical College,29,2,1135 North Oakland Avenue,Bolivar,MO,65613-8095,37.623291,-93.421157,1135,N Oakland Ave,,,Bolivar,MO,Polk County,65613
233356,Bon Secours Memorial College of Nursing,51,2,8550 Magellan Parkway Suite 1100,Richmond,VA,23227-1149,37.646588,-77.433732,8550,Magellan Pkwy,Ste,1100,Richmond,VA,Henrico County,23227
233480,Bon Secours St Mary's Hospital School of Medical Imaging,51,5,8550 Magellan Pkwy Ste 700,Richmond,VA,23227,37.646588,-77.433732,8550,Magellan Pkwy,Ste,700,Richmond,VA,Henrico County,23227
481456,Bonnie Joseph Academy of Cosmetology & Barbering,49,9,55 East center Street  STE 120,Heber City,UT,84032-2044,40.50847,-111.41214,55,E Center St,Ste,120,Heber City,UT,Wasatch County,84032
498386,Boone Career and Technical Center,54,4,3505 Daniel Boone Parkway  Suite B,Foster,WV,25081-8126,38.103237,-81.809725,3505,Daniel Boone Pkwy,Ste,B,Foster,WV,Boone County,25081
189413,Boricua College,36,2,3755 Broadway,New York,NY,10032-1560,40.833398,-73.945699,3755,Broadway,,,New York,NY,New York County,10032
454759,Borner's Barber College,6,9,8913 S Western Ave,Los Angeles,CA,90047,33.95587,-118.30921,8913,S Western Ave,,,Los Angeles,CA,Los Angeles County,90047
483948,Bos-Man's Barber College,22,9,2724 W. 70th Street,Shreveport,LA,71108,32.442176,-93.782904,2724,W 70th St,,,Shreveport,LA,Caddo Parish,71108
158431,Bossier Parish Community College,22,4,6220 East Texas,Bossier City,LA,71111-6922,32.538822,-93.646361,6220,E Texas St,,,Bossier City,LA,Bossier Parish,71111
164872,Boston Architectural College,25,2,320 Newbury Street,Boston,MA,02115-2703,42.348469,-71.085801,320,Newbury St,,,Boston,MA,Suffolk County,2115
164614,Boston Baptist College,25,2,950 Metropolitan Ave,Boston,MA,02136-4030,42.254009,-71.110261,950,Metropolitan Ave,,,Hyde Park,MA,Suffolk County,2136
164924,Boston College,25,2,140 Commonwealth Avenue,Chestnut Hill,MA,2467,42.336956,-71.170505,140,Commonwealth Ave,,,Chestnut Hill,MA,Middlesex County,2467
164915,Boston Graduate School of Psychoanalysis Inc,25,2,1581 Beacon Street,Brookline,MA,2446,42.339268,-71.133152,1581,Beacon St,,,Brookline,MA,Norfolk County,2446
164988,Boston University,25,2,One Silber Way,Boston,MA,2215,42.349603,-71.099727,1,Silber Way,,,Boston,MA,Suffolk County,2215
161004,Bowdoin College,23,2,255 Maine Street,Brunswick,ME,4011,43.90647,-69.964146,255,Maine St,,,Brunswick,ME,Cumberland County,4011
162007,Bowie State University,24,1,14000 Jericho Park Rd,Bowie,MD,20715-9465,39.018301,-76.760705,14000,Jericho Park Rd,,,Bowie,MD,Prince George's County,20715
201432,Bowling Green State University-Firelands,39,1,One University Drive,Huron,OH,44839-9791,41.397696,-82.594285,1,University Dr,,,Huron,OH,Erie County,44839
201441,Bowling Green State University-Main Campus,39,1,220 McFall Ctr,Bowling Green,OH,43403,41.376979,-83.637118,,,,,Bowling Green,OH,Wood County,43403
143358,Bradley University,17,2,1501 W BRADLEY AVE,Peoria,IL,61625-0001,40.696526,-89.61384,,W Bradley Ave,,,Peoria,IL,Peoria County,61625
479992,Brand College,6,9,529 Hahn Ave Ste 101,Glendale,CA,91203,34.157899,-118.265524,529,Hahn Ave,Ste,101,Glendale,CA,Los Angeles County,91203
165015,Brandeis University,25,2,415 South St,Waltham,MA,02454-9110,42.36291,-71.261051,415,South St,,,Waltham,MA,Middlesex County,2453
496894,Branford Academy of Hair & Cosmetology-Bridgeport,9,9,1450 Barnum Avenue,Bridgeport,CT,06610-3239,41.187113,-73.163072,1450,Barnum Ave,,,Bridgeport,CT,Greater Bridgeport Planning Region,6610
451042,Branford Academy of Hair and Cosmetology,9,9,251 West Main St,Branford,CT,6405,41.27889,-72.853444,250,W Main St,,,Branford,CT,South Central Connecticut Planning Region,6405
